t,x,y,z,vx,vy,vz,roll,pitch,yaw,p,q,r
0.0,0.0,0.0,0.0,0.0,0.0,0.0,0.0,0.0,0.0,0.0,0.0,0.0
0.01,6.351706827942349e-05,7.361835422136854e-10,0.0008377732684183509,0.006351706827942349,7.361835422136855e-08,0.08377732684183509,-8.804395336524136e-09,2.7746572817122228e-08,-1.2214589812224497e-16,-8.804395336524133e-07,2.7746572837398448e-06,0.0
0.02,0.00019055649312000998,2.4047192810460336e-09,0.0025134421725993214,0.01270394248405865,1.668535738832348e-07,0.16756689041809703,-2.8758531987330987e-08,9.650715515618913e-08,-1.4135702755895715e-15,-1.995413665080677e-06,6.876058235811904e-06,2.117582368135751e-28
0.03,0.0003811223839043635,5.176401006235563e-09,0.005027125795162842,0.01905658907843535,2.771681725189529e-07,0.251368362256352,-6.19040142560035e-08,2.0544365297858747e-07,-6.351800406122353e-15,-3.3145482268671707e-06,1.0893649769181352e-05,3.811648262644352e-28
0.04,0.0006352183037019172,8.920703755123153e-09,0.008378945286336734,0.025409591979755373,3.7443027488875905e-07,0.33518194911738913,-1.0667926031360621e-07,3.471791454323636e-07,-1.8298917125495648e-14,-4.477524605759934e-06,1.4173549242585974e-05,1.2705494208814505e-28
0.05,0.0009528499637246322,1.404480707785244e-08,0.012569018514355327,0.03176316600227149,5.124103322729287e-07,0.4190073228018593,-1.6795188515168298e-07,5.400150824286243e-07,-4.477829427884686e-14,-6.127262483806482e-06,1.9283593701596916e-05,1.6517142471458856e-27
0.060000000000000005,0.001334022699994903,2.1354001799771286e-08,0.017597467586078094,0.038117273627027076,7.309194721918847e-07,0.5028449071722768,-2.5534850405428316e-07,7.977582903162528e-07,-9.932969435484368e-14,-8.73966189025632e-06,2.5774320781321537e-05,4.3622196783596466e-27
0.07,0.0017787402417169557,3.0450606224184573e-08,0.02346440924729561,0.04447175417220527,9.096604424413286e-07,0.5866941661217514,-3.6411318727842017e-07,1.1149980490010591e-06,-1.9758863313229996e-13,-1.0876468322404205e-05,3.1723975878817575e-05,1.5204241403214693e-26
0.08,0.002287008508841332,4.2124705922501337e-08,0.03016996528915334,0.05082682671243763,1.1674099698316763e-06,0.6705556041857731,-5.036891866992402e-07,1.5125059042997435e-06,-3.700677633426783e-13,-1.3957599942059179e-05,3.975078551921134e-05,1.7914746834428454e-26
0.09,0.0028588321788630953,5.659036117136949e-08,0.03771425603692657,0.05718236700217632,1.4465655248868153e-06,0.7544290747773225,-6.766331523655926e-07,1.9961927395506507e-06,-6.555209518848879e-13,-1.7294396566584818e-05,4.836868356304499e-05,3.688828485292478e-26
0.09999999999999999,0.0034942162870250015,7.411282525188813e-08,0.04609740369918688,0.06353841081619063,1.7522464080518638e-06,0.8383147662260311,-8.861132542978161e-07,2.5762379665117408e-06,-1.1087527486469608e-12,-2.0948010193118163e-05,5.800452266071702e-05,2.604626312806974e-26
0.10999999999999999,0.004193165507259011,9.506334434172828e-08,0.055319528389310486,0.06989492202340099,2.0950519089840152e-06,0.9222124690123608,-1.1365640371837241e-06,3.25849482574192e-06,-1.7987454769368596e-12,-2.5045078288388523e-05,6.822568593224033e-05,4.230929571535231e-26
0.11999999999999998,0.0049556839565480975,1.1962432145443642e-07,0.06538074547512596,0.07625184492890859,2.4560977112708133e-06,1.0061217085815473,-1.4301626771756686e-06,4.04215334426361e-06,-2.8044641042878534e-12,-2.9359863998825855e-05,7.836585186000433e-05,5.315131744020735e-26
0.12999999999999998,0.005781774821212773,1.4737755128524057e-07,0.07628117300161848,0.08260908646646753,2.775322983080416e-06,1.0900427526492522,-1.7619087274916268e-06,4.915275520378515e-06,-4.1979982695991935e-12,-3.3174605030969584e-05,8.73122176029564e-05,-2.2742834633777966e-26
0.13999999999999999,0.0066714434834136156,1.8004949036257428e-07,0.08802092948966381,0.08896686622008429,3.2671939077333724e-06,1.1739756488045325,-2.1524295683669597e-06,5.892157047160396e-06,-6.109920655388587e-12,-3.905208408649707e-05,9.768815269318923e-05,-6.611092153319814e-26
0.15,0.0076246936742579785,2.1770823729160355e-07,0.10060013427022485,0.09532501908443627,3.765874692902927e-06,1.2579204780561046,-2.602534962126178e-06,6.967357504938931e-06,-8.666190675258882e-12,-4.501053937427378e-05,0.00010752004576345177,-1.5284709533203852e-25
0.16,0.008641531094445952,2.616410247267101e-07,0.1140189094560102,0.10168374201879728,4.393278743510654e-06,1.3418775185785354,-3.1276003344802525e-06,8.158962493620692e-06,-1.2080219578454668e-11,-5.250653723281914e-05,0.00011916049888957645,1.9409759986332293e-25
0.17,0.009721959984302257,3.13095704793518e-07,0.1282773750239769,0.1080428889856304,5.145468006680793e-06,1.42584655679667,-3.7425286513209603e-06,9.467601782997548e-06,-1.657547993510115e-11,-6.149283168010015e-05,0.00013086392892059078,1.0736142606448258e-25
0.18000000000000002,0.010865983787222805,3.7134945500271583e-07,0.143375646575686,0.11440238029205492,5.825375020919784e-06,1.5098271551709102,-4.438679148024892e-06,1.0884378724762556e-05,-2.2370953217888185e-11,-6.961504966448409e-05,0.00014167769416870797,-1.5284709533203852e-25
0.19000000000000003,0.01207360708116549,4.3646087465744874e-07,0.15931384509904312,0.12076232939426843,6.511141965473288e-06,1.5938198523357123,-5.216746326832585e-06,1.2413943422329154e-05,-2.975525219055277e-11,-7.78067178721521e-05,0.0001529564697364562,-1.5284709533203852e-25
0.20000000000000004,0.013344833688969425,5.087048207587647e-07,0.17609208987779623,0.1271226607803936,7.224394610131593e-06,1.6778244778753106,-6.080007779252278e-06,1.4051919415170033e-05,-3.900715820472775e-11,-8.632614522970681e-05,0.00016379759933370512,-6.732641381250808e-25
0.21000000000000005,0.014679668327351361,5.893774697757955e-07,0.19371050063168863,0.13348346383819362,8.06726490170308e-06,1.7618410753892395,-7.0439390469931e-06,1.580460044570131e-05,-5.0508204529068945e-11,-9.63931267568885e-05,0.00017526810304085614,-1.5284709533203856e-25
0.22000000000000006,0.0160781155293797,6.787212708315603e-07,0.2121691958332624,0.13984472020283398,8.934380105576483e-06,1.8458695201573794,-8.111429077622644e-06,1.767607975766694e-05,-6.468968348732722e-11,-0.00010674900303918307,0.00018714793119969797,-1.5284709533203856e-25
0.23000000000000007,0.01754018020021007,7.76176382164087e-07,0.23146829555177426,0.146206467083037,9.745511133252669e-06,1.9299099718511843,-9.275785190088072e-06,1.9674886723830554e-05,-8.206652599238723e-11,-0.000116435611214052,0.0001998806966376931,3.6756994746100364e-25
0.24000000000000007,0.019065867146974575,8.823448557806614e-07,0.25160792115884,0.1525686946764505,1.0616847361657449e-05,2.0139625607065743,-1.0544190085940086e-05,2.1808372141940424e-05,-1.0320934011369355e-10,-0.00012684048954129942,0.00021334854177831102,7.14514642656365e-25
0.25000000000000006,0.020655180923175538,9.970392600418875e-07,0.2725881916833578,0.1589313776200964,1.1469440426122615e-05,2.098027052451777,-1.1914398833350411e-05,2.4080851276364612e-05,-1.287276774797447e-10,-0.00013702087468242278,0.00022724791351377746,2.2757657710354914e-24
0.26000000000000006,0.022308124037857657,1.1187294167536685e-06,0.2944092224874577,0.1652943114682118,1.2169015671178087e-05,2.182103080409991,-1.3368135158235046e-05,2.647222282670114e-05,-1.5895764373963792e-10,-0.00014537363241198334,0.00023913715501210357,4.010489247012299e-24
0.2700000000000001,0.024024699478276255,1.2483584843560587e-06,0.3170711325109159,0.17165754404185973,1.2962906760239032e-05,2.2661910023458165,-1.4916654081446663e-05,2.8968090053815843e-05,-1.9425518300192503e-10,-0.00015485189222323625,0.00024958672274959264,3.663544551816937e-24
0.2800000000000001,0.02580491097050165,1.3882242854578745e-06,0.34057404279270315,0.17802114922253948,1.3986580110181571e-05,2.350291028178727,-1.6587381149371927e-05,3.156287103367461e-05,-2.3512821872928114e-10,-0.00016707270666872803,0.0002594780980236275,8.879869902540454e-25
0.2900000000000001,0.02764876405702844,1.5369561901121558e-06,0.3649180729784058,0.18438530865267874,1.4873190465428133e-05,2.434403018570264,-1.8363946443900523e-05,3.427266197864043e-05,-2.824836142690417e-10,-0.00017765652929686789,0.00027097909451435356,8.879869902540454e-25
0.3000000000000001,0.029556261164894772,1.6938388830995322e-06,0.39010334180349393,0.19074971078663316,1.568826929873765e-05,2.518526882508817,-2.0237804711950032e-05,3.7076362529253615e-05,-3.3659748980136006e-10,-0.00018738582661177922,0.00028037005514152996,1.5818763806447682e-24
0.3100000000000001,0.031527403769545104,1.8598504425942264e-06,0.4161299682352155,0.1971142604650333,1.6601155949469422e-05,2.6026626431721547,-2.222062401832808e-05,3.994151036712523e-05,-3.9742232749279106e-10,-0.00019828193040343943,0.00028651478384655686,8.879869902540454e-25
0.3200000000000001,0.03356219516514323,2.0327647530307462e-06,0.44299807042264655,0.20347913955981264,1.7291431043652e-05,2.6868102187431098,-2.428582872073746e-05,4.285734796272145e-05,-4.652249592303919e-10,-0.0002065204699600929,0.00029158375963576975,1.9409759986332247e-25
0.3300000000000001,0.03566063871020685,2.2132563071011595e-06,0.4707077682284006,0.20984435450636224,1.804915540704132e-05,2.770969780575406,-2.6441463113236155e-05,4.581387989510688e-05,-5.402133883911905e-10,-0.00021556343891724667,0.0002956531933210455,8.879869902540454e-25
0.34000000000000014,0.037822741920438795,2.4014034144932547e-06,0.4992591820011426,0.21621032102319407,1.88147107392095e-05,2.855141377274201,-2.868845571747134e-05,4.885071519011852e-05,-6.239236301612831e-10,-0.00022469926002712578,0.0003036835296068666,-1.8875705713088462e-24
0.35000000000000014,0.040048509088872655,2.597390391641775e-06,0.5286524324516487,0.22257671684338617,1.959869771485205e-05,2.9393250450506065,-3.102899975778253e-05,5.196899549364531e-05,-7.170315129033302e-10,-0.00023405440356157365,0.0003118280305119063,-3.969238742481015e-24
0.36000000000000015,0.04233794593150977,2.801873877269098e-06,0.5588876408022959,0.22894368426371128,2.044834856273227e-05,3.0235208350647236,-3.3470923693637884e-05,5.5186834166720544e-05,-8.208066871448266e-10,-0.0002441923930293194,0.0003217838674963384,-4.6631281328717374e-24
0.37000000000000016,0.04469105490854154,3.0142988096152804e-06,0.5899649250430992,0.23531089770317748,2.1242493234618236e-05,3.1077284240803245,-3.600759916366181e-05,5.84834919603594e-05,-9.3533014430594e-10,-0.0002536675463512662,0.0003296657795626207,-5.35701752326246e-24
0.38000000000000017,0.04710783940836599,3.2318721058647184e-06,0.6218844041688997,0.24167844998244478,2.1757329624943784e-05,3.191947912580055,-3.8605697901062205e-05,6.184929911645654e-05,-1.0608971291892623e-09,-0.0002598098729843029,0.00033658071583027847,-8.826464475216075e-24
0.3900000000000002,0.04958830348723516,3.4517115245772756e-06,0.6546461971364409,0.24804640788691698,2.198394187125572e-05,3.276179296754125,-4.123083250846646e-05,6.5282547927481e-05,-1.1979464660951766e-09,-0.00026251345986900054,0.00034332488138944347,-9.520353865606799e-24
0.4000000000000002,0.05213245173028081,3.6755011657226776e-06,0.6882504250274681,0.254414824304565,2.237896411454019e-05,3.360422789102722,-4.390309026450635e-05,6.878783168562386e-05,-1.3471557449014717e-09,-0.0002672257746034888,0.0003505283761261357,-6.788164390943327e-24
0.4100000000000002,0.054740295499599884,3.904544726930692e-06,0.7226972100930077,0.260784376931907,2.290435612080146e-05,3.444678506553957,-4.6638017689376436e-05,7.245057137117428e-05,-1.512970000053514e-09,-0.0002734927413157352,0.0003662739689062487,-4.012606829380436e-24
0.4200000000000002,0.05741183438756087,4.139704394106721e-06,0.757986670184159,0.26715388879609825,2.3515966717602905e-05,3.5289460091151303,-4.944589555941078e-05,7.621579320304939e-05,-1.6938586246282238e-09,-0.00028078778565849996,0.00037652218363742147,-5.573857957759562e-24
0.4300000000000002,0.060147071660037674,4.379591179204978e-06,0.7941189248366388,0.2735237272476807,2.398867850982573e-05,3.613225465247982,-5.2310153923466074e-05,8.007233468854125e-05,-1.890071838504191e-09,-0.0002864258348718854,0.00038565414903006973,-8.349415519322453e-24
0.4400000000000002,0.06294601426606722,4.624702394036829e-06,0.8310940949910964,0.27989426060295497,2.4511121483185012e-05,3.6975170154457664,-5.52367196129271e-05,8.405295116786782e-05,-2.1041232679954803e-09,-0.00029265656718915374,0.0003980616485400121,-5.573857957759562e-24
0.45000000000000023,0.06580866400241894,4.8709322799286676e-06,0.8689122993691191,0.28626497363517284,2.46229885891839e-05,3.781820437802265,-5.817662898537674e-05,8.812894900045443e-05,-2.3352595506180693e-09,-0.000293990935254682,0.00040759978387865434,-5.573857957759562e-24
0.46000000000000024,0.06873502496491987,5.122852163115861e-06,0.9075736586260259,0.29263609625009224,2.5191988318719348e-05,3.866135925690689,-6.118439012550069e-05,9.229904407126455e-05,-2.5841329506388617e-09,-0.00030077611176677145,0.00041700950782692974,-6.267747348150285e-24
0.47000000000000025,0.07172510433984787,5.379404308095843e-06,0.9470782929602356,0.29900793749279964,2.5655214497998147e-05,3.950463433420973,-6.424738715074725e-05,9.659879475365507e-05,-2.8537956371947268e-09,-0.00030629969997725026,0.00042997506911349805,-6.267747348150285e-24
0.48000000000000026,0.07477890328779781,5.638519186842509e-06,0.9874263224829857,0.30537989479499333,2.5911487874666566e-05,4.034802952275007,-6.734094280810466e-05,0.00010099190685775028,-3.1428367815327144e-09,-0.0003093555628796502,0.0004393112113166856,-1.1818862471276068e-23
0.49000000000000027,0.0778964241988311,5.902664013034612e-06,1.028617866510168,0.31175209110332824,2.6414482619210324e-05,4.119154402718226,-7.049446965675844e-05,0.00010545674276674077,-3.4505430332332373e-09,-0.000315352681688577,0.0004464835919808235,-1.9104701070378657e-23
0.5000000000000002,0.0810776741517489,6.173104439473213e-06,1.0706530458232466,0.3181249952917801,2.704404264386002e-05,4.203517931307857,-7.372305148284052e-05,0.00011002755368072492,-3.780138545520157e-09,-0.00032285817905651525,0.00045708109258713633,-1.927817341797634e-23
0.5100000000000002,0.08432265749791827,6.448133637806131e-06,1.113531980507059,0.3244983346169379,2.7502919833291836e-05,4.287893468381227,-7.700633819707069e-05,0.00011470606908114966,-4.1327334338720195e-09,-0.00032832866746042164,0.0004678515413840589,-1.7890394637194892e-23
0.5200000000000002,0.08763137776855456,6.724457188859154e-06,1.157254789638535,0.3308720270636295,2.7632355105302316e-05,4.372280913147607,-8.030506025968542e-05,0.00011948423734819968,-4.508563603286889e-09,-0.0003298722018600557,0.0004778168281550795,-1.7890394637194892e-23
0.5300000000000002,0.09100383992189691,7.006891616096277e-06,1.2018215941735009,0.3372462153342349,2.824344272371231e-05,4.45668045349658,-8.367662271268432e-05,0.00012437100694162595,-4.909233958294622e-09,-0.0003371562404139406,0.0004886769609987382,-1.7207347268529025e-23
0.5400000000000003,0.09444004789006855,7.296292405669983e-06,1.2472325149399768,0.3436207968171631,2.894007895737062e-05,4.5410920766475895,-8.713121623145451e-05,0.00012936308963329424,-5.335577390952679e-09,-0.0003454593464674052,0.0004992082709952334,-1.6513457878138303e-23
0.5500000000000003,0.09794000678581427,7.591585933159214e-06,1.29348767231646,0.34999588957457206,2.952935274892317e-05,4.6255157376483105,-9.065604134797162e-05,0.00013447126119348063,-5.7896613025513696e-09,-0.00035248250566080006,0.0005108171580055264,-1.4084845011770773e-23
0.5600000000000003,0.10150372265875338,7.897779089758101e-06,1.3405871874631818,0.3563715872939103,3.061931565988872e-05,4.709951514672187,-9.431075634702644e-05,0.00013971745216534437,-6.274846880605805e-09,-0.0003654714932530227,0.0005246190994715107,-2.657485403880378e-23
0.5700000000000003,0.10513119609182307,8.210716565495158e-06,1.388531179445297,0.3627473433069695,3.12937475737058e-05,4.794399198211522,-9.804584219554863e-05,0.0001450584490381157,-6.788534883025706e-09,-0.00037350857753703007,0.0005340996897405111,-2.379929647724089e-23
0.5800000000000003,0.10882243740447162,8.530262636243673e-06,1.4373197690718587,0.369124131264855,3.1954607074851536e-05,4.878858962656167,-0.00010185967653648134,0.0001505670418580074,-7.339133943456944e-09,-0.00038138342595375404,0.0005508592847479,-1.686040257333366e-23
0.5900000000000003,0.11257745648783668,8.85311148978996e-06,1.486953077268661,0.3755019083365056,3.228488535462856e-05,4.9633308196802375,-0.00010571286904437091,0.0001563109013973385,-7.935267725646866e-09,-0.00038531924164087963,0.0005743859570428955,-2.2411517696459444e-23
0.6000000000000003,0.11639626015125121,9.17807812388071e-06,1.537431225176395,0.3818803663414533,3.249666340907515e-05,5.047814790773416,-0.00010959129971813269,0.00016232096864854384,-8.58226400319781e-09,-0.00038784305706733064,0.0006010067285995702,-1.686040257333366e-23
0.6100000000000003,0.12027885194614853,9.50636996523864e-06,1.5887543335796332,0.38825917948973154,3.2829184135792816e-05,5.13231084032381,-0.00011350935019985063,0.00016858936546149117,-9.281505717126251e-09,-0.0003918050366011956,0.0006268396851881352,-2.2411517696459444e-23
0.6200000000000003,0.124225238067471,9.84062341657328e-06,1.640922521853199,0.3946386121322476,3.3425345133464044e-05,5.216818827356579,-0.00011749842341801546,0.00017513969916183036,-1.0038094733945814e-08,-0.000398907308811975,0.0006550333744013404,-2.2411517696459444e-23
0.6300000000000003,0.12823542330900042,1.0178010530542407e-05,1.6939359097475861,0.40101852415294087,3.373871139691272e-05,5.301338789438703,-0.00012152483336766055,0.00018197887794890732,-1.0855456144549097e-08,-0.00040264098036819424,0.0006839178835679045,-2.2411517696459444e-23
0.6400000000000003,0.13230940845555575,1.0517384151591023e-05,1.7477946172569756,0.40739851465553284,3.3937362104861534e-05,5.385870750938941,-0.00012557491638738014,0.0001890660556345125,-1.1731076080367226e-08,-0.0004050082857255478,0.0007087177739753847,-2.2411517696459444e-23
0.6500000000000004,0.13644719349733078,1.0859015630163241e-05,1.8024987630431926,0.4137785041775045,3.416314785722181e-05,5.470414578621685,-0.0001296519059130667,0.00019635092465430937,-1.2660723088084476e-08,-0.00040769893465176707,0.0007284869079093175,-2.2411517696459444e-23
0.6600000000000004,0.14064878164693334,1.1206710684680848e-05,1.858048467717015,0.4201588149602562,3.476950545176075e-05,5.554970467382257,-0.00013380112073011033,0.00020382154700993027,-1.3644802148701568e-08,-0.0004149214620123637,0.0007470622420516658,-2.7962632819585226e-23
0.6700000000000004,0.1449141828580008,1.1560178117845673e-05,1.9144438524879401,0.4265401211067459,3.534674331648248e-05,5.639538477092511,-0.00013801908835597008,0.00021154624764818664,-1.4694667049161233e-08,-0.0004217967407798772,0.0007724700709808431,-2.2411517696459444e-23
0.6800000000000004,0.1492434008126109,1.1920493942333469e-05,1.9716850377278556,0.4329217954610073,3.603158244877958e-05,5.724118523991542,-0.0001423186172172891,0.00021951866375857776,-1.581215150254936e-08,-0.0004299528620442055,0.0007972416188662692,-3.906486306583679e-23
0.6900000000000004,0.15363643590684775,1.2288177681380124e-05,2.0297721428369986,0.4393035094236846,3.676837390466545e-05,5.8087105109143105,-0.00014670589019589927,0.00022769330634386797,-1.6993487563532494e-08,-0.00043872727144318827,0.0008174642670557367,-1.4084845011770767e-23
0.7000000000000004,0.15809330313377618,1.2671063397504394e-05,2.0887052917357534,0.4456867226928429,3.828857161242693e-05,5.893314889875482,-0.00015127416286788158,0.00023619845417477414,-1.8260669807976097e-08,-0.0004568272378037089,0.0008505147925217111,5.3440579191694744e-24
0.7100000000000004,0.1626140061672112,1.3063565514103035e-05,2.1484846033287925,0.45207030334350135,3.92502116598641e-05,5.977931159303928,-0.00015595693397641182,0.00024502762669853517,-1.9616968037261323e-08,-0.0004682770782156824,0.0008829172628136495,-5.758172327082092e-24
0.7200000000000004,0.1671985511921094,1.3470947812967542e-05,2.2091101990390323,0.45845450248982095,4.073822988645073e-05,6.062559571023953,-0.00016081685359373333,0.0002542042224595864,-2.1070420592810783e-08,-0.0004859919254482511,0.0009176595876168779,-2.2411517696459444e-23
0.7300000000000004,0.17184694002825593,1.3884469893378378e-05,2.2705821974337312,0.4648388836146523,4.135220804108351e-05,6.1471998394699,-0.00016574987908333214,0.00026369968083161943,-2.2620871066440004e-08,-0.0004933025088069559,0.0009495458498433078,-1.1309287450207877e-23
0.7400000000000004,0.17655917309569077,1.4302125546206213e-05,2.332900717172813,0.4712233067434838,4.17655652827834e-05,6.231851973908172,-0.00017073213254294026,0.00027346877875400466,-2.426443400159017e-08,-0.0004982253018133411,0.0009769098060793458,-1.1309287450207877e-23
0.7500000000000004,0.18133525496777403,1.4716495453399257e-05,2.3960658780024087,0.47760818720832604,4.143699071930455e-05,6.316516082959565,-0.0001756753143364909,0.0002835157194318594,-2.600460162104827e-08,-0.0004943181308885893,0.0010046940828376527,-1.1309287450207877e-23
0.7600000000000005,0.1861751997992208,1.5121976330066225e-05,2.460077803455816,0.48399448314467697,4.054808766669667e-05,6.40119254534074,-0.00018051274044807663,0.00029395870939596946,-2.786443585897191e-08,-0.00048374255745384074,0.0010442990129944148,-3.351374794271101e-23
0.7700000000000005,0.19107902072599184,1.5531611480985435e-05,2.524936616740113,0.49038209267710575,4.096351509192114e-05,6.485881328429682,-0.00018539962520872978,0.00030490381061842875,-2.9866909911419786e-08,-0.0004886884161001044,0.0010945101405720034,-3.351374794271101e-23
0.7800000000000005,0.19604671929921064,1.594688948884801e-05,2.5906424392775023,0.4967698573218789,4.1527800786257526e-05,6.570582253738907,-0.0001903536773066674,0.0003163192232524814,-3.201159953852503e-08,-0.000495405143171854,0.0011415412835493188,-5.571820843521414e-23
0.7900000000000005,0.20107829574351369,1.636687704232477e-05,2.6571953899535723,0.5031576444303044,4.1998755347675805e-05,6.655295067606985,-0.00019536379277111345,0.00032815737180369453,-3.4294690040063643e-08,-0.0005010114728688346,0.0011838148771080835,-5.571820843521414e-23
0.8000000000000005,0.2061737571887325,1.6790112729870178e-05,2.7245955894896996,0.5095461445218792,4.2323568754540814e-05,6.740019953612709,-0.0002004125821208206,0.00034045282749395334,-3.672781564816041e-08,-0.0005048788536237296,0.0012295455931119225,-5.571820843521414e-23
0.8100000000000005,0.21133310240515962,1.7215688472177618e-05,2.792843155771959,0.5159345216427147,4.2557574230744e-05,6.824756628225915,-0.0002054892477506358,0.0003531407121721841,-3.9302833642444203e-08,-0.0005076664736739197,0.0012687884939748078,-7.792266892771727e-23
0.8200000000000005,0.2165563370055217,1.7641188152429315e-05,2.861938209862819,0.5223234600362077,4.254996802516978e-05,6.909505409086006,-0.00021056504684447205,0.00036623753342190923,-4.202732822118551e-08,-0.0005075798113792662,0.001309682153296329,-1.001271294202204e-22
0.8300000000000005,0.22184347044644623,1.8067461695306666e-05,2.9318808739662043,0.5287133440924513,4.2627354287734983e-05,6.994266410338549,-0.00021565008710404255,0.00037980550830862825,-4.491876658298385e-08,-0.0005085039180923785,0.0013567975194949682,-7.792266892771727e-23
0.8400000000000005,0.22719450836748875,1.849465905609534e-05,3.002671268015361,0.5351037921042536,4.271973607886733e-05,7.079039404915656,-0.00022074615502535986,0.0003938614479865876,-4.798574648863464e-08,-0.0005096066734822925,0.001405594001261051,-3.351374794271101e-23
0.8500000000000005,0.23260945582528952,1.8922432081483747e-05,3.074309514469895,0.5414947457800786,4.2777302538841026e-05,7.163824645453425,-0.00022584910618804406,0.0004084152105481298,-5.123556750050032e-08,-0.0005102949858966393,0.001455376292435268,-7.792266892771727e-23
0.8600000000000005,0.23808832634222307,1.9352806050357513e-05,3.1467957359501546,0.5478870516933549,4.30373968873766e-05,7.248622148025932,-0.00023098302252159492,0.0004235773248866259,-5.469883834484141e-08,-0.0005133914892744817,0.0015162114733939358,-1.001271294202204e-22
0.8700000000000006,0.24363111923723324,1.9791760536286652e-05,3.220130051039157,0.5542792895010161,4.389544859291375e-05,7.333431508900244,-0.00023621901757421104,0.0004392894135201164,-5.8369198684975654e-08,-0.0005235993468992505,0.0015712089062034653,-7.792266892771727e-23
0.8800000000000006,0.24923784129931728,2.02308679734595e-05,3.294312581355861,0.5606722062084033,4.391074371728457e-05,7.418253031670367,-0.0002414568711421143,0.0004555819121181415,-6.226046602208276e-08,-0.0005237851826695656,0.0016292499062867784,-7.792266892771727e-23
0.8900000000000006,0.2549085003857021,2.06646790170253e-05,3.369343447812252,0.567065908638486,4.338110435658018e-05,7.503086645639102,-0.00024663179015170327,0.00047249795100112735,-6.638872993491515e-08,-0.0005174917093786308,0.0016916039386880267,-7.792266892771727e-23
0.9000000000000006,0.2606431029969339,2.1093523693091828e-05,3.445222771252482,0.5734602611231772,4.2884467606652866e-05,7.587932344023037,-0.0002517477041165734,0.000490064518512634,-7.07661390485963e-08,-0.0005115911857973796,0.0017566568056844069,-7.792266892771727e-23
0.9100000000000006,0.2664416533379864,2.1516210768025888e-05,3.5219506721961946,0.579855034105252,4.226870749340616e-05,7.672790094371271,-0.0002567904572622165,0.0005082813035843792,-7.539810491872926e-08,-0.0005042750833351846,0.0018216785660697084,-1.667405108977298e-22
0.9200000000000006,0.272304164305579,2.1919360917162084e-05,3.5995272757476116,0.5862510967592579,4.0315014913619584e-05,7.757660355141682,-0.00026160099082085577,0.0005272512880052371,-8.031504453487911e-08,-0.00048105310126695495,0.0018969985058038905,-5.571820843521413e-23
0.9300000000000006,0.2782306420379613,2.2304444898159463e-05,3.6779527024543937,0.5926477732382265,3.850839809973802e-05,7.842542670678201,-0.0002661968056167323,0.000546997121463555,-8.55259491015282e-08,-0.00045958119968242823,0.00197458341460657,-5.571820843521413e-23
0.9400000000000006,0.284221080699501,2.267360628686058e-05,3.757227069810235,0.599043866153977,3.691613887011203e-05,7.927436735584099,-0.0002706034072403044,0.0005673991386958566,-9.100185367945119e-08,-0.000440659857225566,0.0020402017966981946,1.0895173042295269e-23
0.9500000000000006,0.29027547765670697,2.3031272701178506e-05,3.837350494044156,0.6054396957205949,3.576664143179242e-05,8.012342423392136,-0.0002748734494874391,0.000588375753318493,-9.672298368105462e-08,-0.0004270038940809152,0.0020976615402908193,1.0895173042295269e-23
0.9600000000000006,0.29639383774851996,2.3371675663874534e-05,3.918323095780078,0.6118360091812993,3.40402962696027e-05,8.0972601735922,-0.0002789383871428032,0.0006099341631375932,-1.0269263617341206e-07,-0.0004064934078459938,0.0021558410645573668,-1.1309287450207864e-23
0.9700000000000006,0.3025761718323277,2.3698294229895204e-05,4.000144999078829,0.6182334083807759,3.266185660206716e-05,8.182190329875109,-0.0002828395702299687,0.0006321530570418954,-1.0893367995731644e-07,-0.0003901179211044963,0.0022218894780824915,-1.1309287450207864e-23
0.9800000000000006,0.3088224906134492,2.4013650075511124e-05,4.08281632759016,0.62463187811215,3.153558456159194e-05,8.267132851133029,-0.00028660696771287144,0.0006551093016204934,-1.1546985848747988e-07,-0.00037673932758492513,0.002295624550952235,1.0895173042295269e-23
0.9900000000000007,0.31513280267469646,2.4322171084132645e-05,4.166337201544317,0.6310312061247295,3.08521008621521e-05,8.352087395415744,-0.000290293206368569,0.0006788545516867028,-1.2231917964907022e-07,-0.000368623408715114,0.0023745251053788213,-1.1309287450207864e-23
1.0000000000000007,0.3215071130002287,2.462008488421406e-05,4.250707742272948,0.6374310325532277,2.979138000814152e-05,8.437054072863123,-0.0002938534700152084,0.0007033976826777977,-1.2948757576299258e-07,-0.0003560258692195371,0.0024543132037836177,-1.2233158991272355e-22
1.0100000000000007,0.3279454205195913,2.4911795029537656e-05,4.335928066651707,0.6438307519362612,2.9171014532359493e-05,8.522032437875888,-0.0002973401007830788,0.00072867566579915,-1.369596684480071e-07,-0.00034866254173927694,0.002527798422588881,-2.1114943188273606e-22
1.0200000000000007,0.3344477357643959,2.520173978881155e-05,4.421998299090305,0.6502315244804593,2.8994475927389604e-05,8.607023243859759,-0.00030080582009585203,0.0007547632446680552,-1.4476176026954543e-07,-0.0003465713525613954,0.0026087580035323494,-2.1114943188273606e-22
1.0300000000000007,0.34101406885678065,2.5480925024651126e-05,4.50891856160278,0.6566333092384743,2.7918523583957585e-05,8.69202625124748,-0.00030414378370809754,0.0007817303019748145,-1.5291861824192048e-07,-0.00033379573455640367,0.0026967058540528967,-2.777628133602455e-22
1.0400000000000007,0.3476444171465604,2.5746540802859377e-05,4.596688972836563,0.6630348289779767,2.6561577820825206e-05,8.77704112337828,-0.0003073206325302316,0.0008094950199357687,-1.6140718972273635e-07,-0.00031768420683157627,0.0027764719258604256,-1.667405108977298e-22
1.0500000000000007,0.3543387909395253,2.599414740978959e-05,4.685309653834063,0.6694373792964887,2.476066069302142e-05,8.862068099749985,-0.00031028364539045967,0.0008381294509223203,-1.7024956654057653e-07,-0.0002963005575568146,0.002863443235182472,-1.8894497139023293e-22
1.0600000000000007,0.36109719596888634,2.621624115821682e-05,4.774780725676629,0.675840502936104,2.2209374842722935e-05,8.94710718425662,-0.00031294371747343,0.0008676513231966609,-1.7944898948616056e-07,-0.00026600642366786967,0.0029521873707890407,-3.3513747942711e-23
1.0700000000000007,0.3679196383692878,2.6420037956258082e-05,4.865102309664542,0.6822442400401499,2.0379679804126215e-05,9.03215839879133,-0.0003153865665358206,0.0008980831217137997,-1.8900960382892975e-07,-0.00024428406214502263,0.003043180001882574,-3.3513747942711e-23
1.0800000000000007,0.3748061090632505,2.6607422818831818e-05,4.956274520760014,0.6886470693962677,1.8738486257373433e-05,9.11722110954716,-0.00031763461660138975,0.0009292667409344091,-1.9887955404456078e-07,-0.00022480410474620967,0.0031183620782471973,-3.3513747942711e-23
1.0900000000000007,0.38175661701066055,2.6788258576873128e-05,5.048297478134807,0.6950507947410025,1.8083575804131053e-05,9.202295737479291,-0.0003198050061315455,0.0009612582335236652,-2.0907588142807807e-07,-0.0002170379891766233,0.0031991494214121414,-3.3513747942711e-23
1.1000000000000008,0.3887711637381109,2.6966399565415374e-05,5.141171300571943,0.7014546727450345,1.7814098854224444e-05,9.287382243713626,-0.0003219435162866127,0.0009940253835476476,-2.1959002186901482e-07,-0.0002138499875814247,0.003276715171103143,-1.2233158991272355e-22
1.1100000000000008,0.3958497621524825,2.7144364299221594e-05,5.234896113815468,0.7078598414371654,1.779647338062209e-05,9.372481324352506,-0.0003240800356187977,0.0010276710106877918,-2.3045796157452215e-07,-0.00021365083461481044,0.003364562889527041,-3.3513747942711014e-23
1.1200000000000008,0.4029924126263912,2.7327433990601463e-05,5.329472038327753,0.7142650473908646,1.8306969137986747e-05,9.457592451228544,-0.00032627726809153447,0.0010621491668303396,-2.41669528422612e-07,-0.00021972207574419357,0.0034478157965420384,-1.2233158991272355e-22
1.1300000000000008,0.4101991217023333,2.7517298573295856e-05,5.424899195267554,0.7206709075942118,1.8986458269439165e-05,9.542715693980039,-0.0003285552733345787,0.001097487140778508,-2.532397632256571e-07,-0.00022779927490601036,0.0035337975842333353,-1.8894497139023296e-22
1.1400000000000008,0.41746988907480004,2.771323423712814e-05,5.521177702946978,0.7270767372466712,1.959356638322865e-05,9.627850767942329,-0.0003309054669044206,0.0011336309589260463,-2.651574856078862e-07,-0.00023501802746656757,0.0036143820112563597,-2.5555835286774237e-22
1.1500000000000008,0.4248047229793529,2.792210461708353e-05,5.618307682244521,0.7334833904552835,2.0887037995538656e-05,9.712997929754291,-0.00033340931730095006,0.0011706279976473333,-2.7744633411235366e-07,-0.00025038362379023503,0.003699704076195425,-3.6658065533025804e-22
1.1600000000000008,0.43220362769918064,2.815407105474538e-05,5.716289254204876,0.7398904719827765,2.3196643766185145e-05,9.79815719603552,-0.000336187422298985,0.0012084787082684567,-2.9011869976284057e-07,-0.00027780899232516485,0.003785071274275805,-4.2209180656151586e-22
1.1700000000000008,0.4396666016606901,2.841045081148571e-05,5.815122539214388,0.7462973961509461,2.5637975674033297e-05,9.883328500951198,-0.0003392554027802152,0.0012471140361083322,-3.0316668758493203e-07,-0.00030679644605804377,0.0038635330043173613,-4.887051880390253e-22
1.1800000000000008,0.44719364936632994,2.8700226667333008e-05,5.914807659886544,0.7527047705639849,2.8977585584729613e-05,9.96851206721557,-0.00034271983908711306,0.0012865370046386548,-3.1660944314109633e-07,-0.000346441927682791,0.003942297082207699,-4.887051880390253e-22
1.1900000000000008,0.45478478010159673,2.9026852217339242e-05,6.015344740995302,0.7591130735266811,3.266255500062329e-05,10.05370811087578,-0.00034662167577621567,0.00132680735560875,-3.3048946791009674e-07,-0.0003901818551938181,0.004027035336227901,-3.9988734606901275e-22
1.2000000000000008,0.46243999724593526,2.937735078160595e-05,6.116733901137973,0.7655217144338535,3.5049856426671005e-05,10.138916014267085,-0.0003508069175414911,0.0013679148304646116,-3.44824245683339e-07,-0.00041852224505699694,0.004110747735504974,-2.888650436064971e-22
1.2100000000000009,0.4701593027598123,2.9752799428494193e-05,6.218975260038236,0.7719305513877067,3.754486468882416e-05,10.224135890026302,-0.0003552883343513963,0.0014098323141122915,-3.596231286580082e-07,-0.00044813962554780985,0.004191748626035946,-3.3327396459150334e-22
1.2200000000000009,0.4779426923143661,3.014552456530017e-05,6.322068931914122,0.778338955455379,3.9272513680597833e-05,10.309367187588597,-0.0003599748974670951,0.0014524581644199674,-3.748674966433201e-07,-0.0004686541298092012,0.004262585303352721,-2.444561226214908e-22
1.2300000000000009,0.48579016483852716,3.055875134373323e-05,6.426015037030111,0.7847472524161064,4.132267784330572e-05,10.394610511598911,-0.00036490486289353103,0.0014957292986808035,-3.9055069908498124e-07,-0.0004929942307164643,0.004327113710286798,-2.888650436064971e-22
1.2400000000000009,0.49370172837341725,3.0983102163092545e-05,6.5308136936571035,0.7911563534890071,4.24350819359314e-05,10.479865662699208,-0.0003699669874301043,0.0015396907686735517,-4.0670374181275837e-07,-0.0005062100020132418,0.004396147296067426,-2.888650436064971e-22
1.2500000000000009,0.5016773873140231,3.141528461805456e-05,6.63646502396399,0.7975658940605912,4.321824549620103e-05,10.565133030688681,-0.000375122208329773,0.0015843442961871457,-4.2333919332684716e-07,-0.0005155194913955708,0.004465353061221502,-2.888650436064971e-22
1.260000000000001,0.5097171509279432,3.185642130469889e-05,6.742969151011309,0.8039763613920122,4.4113668664433796e-05,10.650412704731892,-0.00038038383119557703,0.0016297493741810332,-4.4049112161406896e-07,-0.0005261595300959921,0.004540508123314617,-3.3327396459150334e-22
1.270000000000001,0.5178210262545707,3.231065344729051e-05,6.8503261953365735,0.810387532662752,4.542321425916138e-05,10.735704432526443,-0.00038580097326401864,0.0016759391016338832,-4.5818608029689735e-07,-0.0005417112820481282,0.004618973084264867,-2.888650436064971e-22
1.280000000000001,0.5259890162068929,3.2779523740704986e-05,6.9585362785150355,0.8167989952322149,4.6887029341447735e-05,10.821008317846182,-0.00039139192329396715,0.0017228976103556004,-4.764340172697015e-07,-0.0005590919018057024,0.004695851226735525,-2.194761045674248e-22
1.290000000000001,0.534221123045279,3.3267180232686873e-05,7.067599520399565,0.82321068383862,4.87656491981886e-05,10.90632418845288,-0.0003972058721579088,0.0017706013243297125,-4.952435687753253e-07,-0.0005813916007281807,0.0047703717682382706,-3.3049840702994047e-22
1.300000000000001,0.5425173518175456,3.3780476436866466e-05,7.177516040202792,0.829622877226655,5.132962041795944e-05,10.99165198032275,-0.00040332408914529275,0.0018190597337466308,-5.146398053586384e-07,-0.0006118182173247789,0.004845841329894876,-2.4168056505992795e-22
1.310000000000001,0.5508776980979074,3.4308648663353355e-05,7.288285954541332,0.8360346280361857,5.2817222648688887e-05,11.076991433854001,-0.00040961895449148243,0.0018681700500815523,-5.346017853981571e-07,-0.0006294828542741635,0.004911032039184532,-2.194761045674248e-22
1.320000000000001,0.5593021608177934,3.48574966448525e-05,7.3999093850493285,0.8424462719885939,5.488479814991396e-05,11.162343050799622,-0.0004161592252296193,0.0019178691917569601,-5.551220567027277e-07,-0.0006540231891537617,0.0049699145911740366,-1.3065826259741228e-22
1.330000000000001,0.5677907452343678,3.543512544752772e-05,7.512386455881083,0.8488584416574377,5.7762880267522645e-05,11.247707083175504,-0.00042304096837387785,0.0019681690180322065,-5.762279097540736e-07,-0.0006881702133757708,0.005029983070347552,-1.3065826259741228e-22
1.340000000000001,0.5763434556075013,3.6052198590300366e-05,7.625717289010183,0.8552710373133547,6.17073142772646e-05,11.33308331290996,-0.0004303905791621054,0.0020190696058843827,-5.97948037964072e-07,-0.0007349567485002434,0.005090059248614885,-4.184042062739975e-23
1.350000000000001,0.5849602908464842,3.6705017921925095e-05,7.739902002044054,0.8616835238982868,6.528193316247266e-05,11.418471303387133,-0.00043816421420566113,0.0020705077045872766,-6.20286489661317e-07,-0.0007773589364460973,0.005143810355370942,-1.3065826259741228e-22
1.360000000000001,0.5936412482076879,3.7390736473792154e-05,7.8549407160737275,0.8680957361203729,6.857185518670604e-05,11.503871402967402,-0.00044632810825268634,0.0021224003929529722,-6.432358838131744e-07,-0.0008163845932878176,0.005189269344050139,-2.194761045674248e-22
1.370000000000001,0.6023863456263185,3.8098880339378815e-05,7.970833553387336,0.8745097418630607,7.08143865586662e-05,11.589283731360839,-0.0004547580964798728,0.002174909821164306,-6.668937007117388e-07,-0.000842993739279949,0.005250943354082405,-3.082939465374373e-22
1.380000000000001,0.611195579814335,3.883353634481578e-05,8.087580633536454,0.8809234188016509,7.346560054369701e-05,11.674708014911873,-0.0004635026150651985,0.0022279466503787315,-6.912445796917425e-07,-0.0008744464976606638,0.005303683480453094,-3.082939465374373e-22
1.390000000000001,0.6200689411396577,3.960254287313751e-05,8.205182075741526,0.8873361325322726,7.690065283217231e-05,11.760144220507051,-0.0004726545557477745,0.0022813463766790942,-7.162399133931591e-07,-0.0009151884324807016,0.00533997321507421,-8.412009983575126e-22
1.400000000000001,0.6290064300165168,4.039776424202279e-05,8.323637999323486,0.8937488876859054,7.952213688852832e-05,11.8455923581961,-0.0004821175033343389,0.0023350635627115146,-7.418838178092067e-07,-0.0009462888392953835,0.005371719215366924,-6.635653144174875e-22
1.410000000000001,0.6380080543030968,4.1217825619981583e-05,8.442948526249458,0.900162428658006,8.200613779587951e-05,11.93105269259719,-0.0004918751530277165,0.002389140906978726,-7.682193614537013e-07,-0.0009757587483811012,0.005407735067998147,-1.0188366822975376e-21
1.420000000000001,0.6470738216269237,4.207381528797245e-05,8.563113778508354,0.9065767323826952,8.559896679908697e-05,12.016525225889662,-0.000502058872496921,0.0024436183625164976,-7.952929410604014e-07,-0.0010183654046703112,0.005447746226517535,-1.3741080501775877e-21
1.430000000000001,0.6562037245663629,4.297487033272802e-05,8.684133877003354,0.9129902939439141,9.010550447555682e-05,12.102009849500035,-0.0005127769013533263,0.0024983576036987643,-8.230686983297418e-07,-0.0010717960220236467,0.005473924822953344,-1.0188366822975376e-21
1.440000000000001,0.665397776848598,4.3924516365329525e-05,8.8060089440481,0.9194052282235105,9.496460326015073e-05,12.187506704474547,-0.0005240709780678673,0.002553470826186066,-8.51640805966242e-07,-0.0011294004541066165,0.005511322989387404,-8.412009983575126e-22
1.450000000000001,0.6746559853732242,4.4938237927491215e-05,8.928739106128027,0.9258208524626199,0.00010137215621616925,12.273016207992745,-0.0005361244781197441,0.002608989197137257,-8.810710690710321e-07,-0.0012053424082586548,0.005551837875206496,-1.0188366822975376e-21
1.460000000000001,0.6839783553019452,4.601779180941352e-05,9.05232448472317,0.9322369928720976,0.00010795538819223055,12.358537859514266,-0.0005489581727124641,0.0026649234365114793,-9.114178139193996e-07,-0.001283361456642618,0.0055934247606678365,-1.551743734117613e-21
1.470000000000001,0.6933648845199596,4.716700331826572e-05,9.176765199638938,0.9386529218014419,0.00011492115088521966,12.444071491576665,-0.0005626173427439414,0.0027211981231252125,-9.426947124446133e-07,-0.0013659085797385622,0.005627469530584373,-2.4399221538177383e-21
1.480000000000001,0.7028155807721364,4.838041600215122e-05,9.30206136846878,0.9450696252176791,0.0001213412683885502,12.529616882984111,-0.0005770373475363987,0.0027778546902392787,-9.749792991920261e-07,-0.001441991602138815,0.005665657631285499,-2.6175578377577635e-21
1.490000000000001,0.7123304308763662,4.964889085182041e-05,9.428213109571539,0.9514850104229767,0.0001268474849669187,12.615174110276005,-0.0005921099389078118,0.002834686701824074,-1.008201929852113e-06,-0.0015072498135783791,0.005683202129561041,-2.2622864698777134e-21
1.500000000000001,0.7219094366829597,5.0988748649632305e-05,9.555220548641172,0.9579005806593494,0.00013398577978118942,12.70074390696331,-0.0006080283357000002,0.0028916655191162377,-1.0423933038350105e-06,-0.001591829889209017,0.005697882755137295,-8.4120099835751295e-22
1.5100000000000011,0.7315525944839667,5.240391315310453e-05,9.683083806357507,0.9643157801006957,0.00014151645034722246,12.786325771633441,-0.0006248389672698011,0.0029486968501788446,-1.0775494898356756e-06,-0.0016810528902957318,0.005703134189904794,-1.306582625974127e-22
1.5200000000000011,0.7412599062734164,5.38961606349086e-05,9.811803004839692,0.9707311789449762,0.00014922474818040678,12.871919848218559,-0.0006425628198425161,0.0030057538763175184,-1.113706743364909e-06,-0.0017723744919773351,0.005705703759590125,-1.306582625974127e-22
1.5300000000000011,0.7510313735819686,5.547624977953161e-05,9.941378265592999,0.9771467308552129,0.00015800891446230038,12.957526075330616,-0.0006613272333842648,0.0030628043117053583,-1.1509006674659023e-06,-0.0018764300680086316,0.005705044751274968,5.798844731626875e-22
1.5400000000000011,0.7608670009383415,5.716734569884106e-05,10.071809716477006,0.9835627356372908,0.00016910959193094488,13.043145088400792,-0.0006814063638023269,0.003119851133109419,-1.1892001980716807e-06,-0.0020079012016404594,0.005704683426134117,-8.4120099835751295e-22
1.5500000000000012,0.7707668054598368,5.89704092357793e-05,10.203097479746463,0.989980452149531,0.00018030635369382377,13.12877632694573,-0.0007028115126221249,0.003177046537558015,-1.2287858512314014e-06,-0.0021405024180764813,0.005719541814838918,-8.4120099835751295e-22
1.5600000000000012,0.7807307912594837,6.0885448847233534e-05,10.335241674825896,0.9963985799646976,0.00019150396114542346,13.214419507943445,-0.0007255427303576589,0.00323438886398697,-1.2697386462450573e-06,-0.0022731086446430475,0.005734234105397523,-8.4120099835751295e-22
1.5700000000000012,0.7907589666053371,6.290475926983845e-05,10.468242421889093,1.002817534585332,0.00020193104226049147,13.300074706319586,-0.0007495087581591906,0.0032919256024905863,-1.312173705748411e-06,-0.0023965889322894464,0.005753675415323805,1.645698576802838e-21
1.5800000000000012,0.8008513459195753,6.50327036555478e-05,10.602099842869483,1.0092379314238258,0.0002127944385709341,13.385742098039048,-0.0007747611775966807,0.0033497770045489705,-1.3562645338461546e-06,-0.0025252273011632334,0.005785141886139078,2.2461310528263747e-22
1.5900000000000012,0.8110079376875162,6.726641043812785e-05,10.736814059553476,1.0156591767940875,0.00022337067825800596,13.471421668399177,-0.0008012659416401559,0.003407993042489066,-1.4021398324953662e-06,-0.002650460902892498,0.005821605601713815,2.2461310528263747e-22
1.6000000000000012,0.8212287301178056,6.960527115715675e-05,10.872385188436962,1.0220792430289423,0.00023388607190289018,13.557112888348556,-0.0008290158415213181,0.0034663839289963416,-1.4497369234804007e-06,-0.0027749736273426674,0.005839090590830684,2.2461310528263747e-22
1.6100000000000012,0.8315137137993069,7.206133077076161e-05,11.008813355801035,1.0284983681501283,0.00024560596136048496,13.642816736407273,-0.000858153314122828,0.0035247876688451196,-1.4990057303942614e-06,-0.002913730037023656,0.0058403760631716905,9.351558410427376e-22
1.6200000000000012,0.8418628864492632,7.462352926033018e-05,11.14609867540169,1.0349172649956218,0.00025621984895685677,13.72853196006563,-0.0008885475057893347,0.003583127147978926,-1.5499568731310726e-06,-0.003039401058007604,0.005833950138511367,-4.859296304774629e-22
1.6300000000000012,0.8522762474685207,7.731399494777294e-05,11.284241276999182,1.0413361019257494,0.0002690465687442762,13.814260159749182,-0.000920460105405137,0.0036413445094733987,-1.6026150560554731e-06,-0.003191240939342743,0.005821738531130385,-1.9070151019976634e-21
1.6400000000000012,0.8627537958946753,8.01388648668046e-05,11.423241281910625,1.047754842615454,0.00028248699190316456,13.900000491144231,-0.0009539636577477915,0.0036993779539531424,-1.657005072026364e-06,-0.003350335270269366,0.00580334699698789,-1.1964723662375632e-21
1.6500000000000012,0.8732955333881365,8.309900450675392e-05,11.563098812831766,1.0541737493461216,0.00029601396399493306,13.985753092114017,-0.000989068319781029,0.003757196654093242,-1.7131772717264614e-06,-0.003510445259784407,0.005781872742904086,-1.1964723662375632e-21
1.6600000000000013,0.8839014719967987,8.619735048705882e-05,11.703813993170174,1.0605938608662202,0.00030983459803048954,14.071518033840734,-0.001025808740996954,0.0038148926280714424,-1.771302855206212e-06,-0.003674020114020498,0.005769600326012851,2.246131052826373e-22
1.6700000000000013,0.8945716097230377,8.944177433280066e-05,11.845386949019312,1.0670137726239042,0.0003244423845741841,14.157295584913825,-0.0010642779084994096,0.0038723916109986156,-1.8313922492280968e-06,-0.0038468936530300034,0.005749901432875884,3.0667840483230385e-21
1.6800000000000013,0.905305941796731,9.282415497733394e-05,11.98781779986369,1.073433207369321,0.0003382380644533271,14.243085084437752,-0.0011043797160821952,0.003929586846467936,-1.8934111871636268e-06,-0.004010156563725824,0.005719526909699726,3.0667840483230385e-21
1.6900000000000013,0.9161044704935298,9.636034805058077e-05,12.131106669495681,1.0798528696798924,0.0003536193073246833,14.328886963199052,-0.0011463015985648517,0.003986454721243371,-1.957407447030022e-06,-0.004192162917349362,0.00568679107883778,3.0667840483230385e-21
1.7000000000000013,0.9269672143000717,0.00010005252847579844,12.27525367874424,1.0862743806541846,0.00036921804252176697,14.414700924856007,-0.001190069211219836,0.0040431634753852475,-2.0236543499797767e-06,-0.004376734667530102,0.0056708792840482695,3.7773267840831386e-21
1.7100000000000013,0.9378941929555991,0.00010389922196743144,12.420258945787277,1.0926978655527366,0.00038466934916330116,14.500526704303587,-0.0012356650919283702,0.004099896262145464,-2.092464287532336e-06,-0.004559560053536241,0.005673282849334395,3.7773267840831386e-21
1.7200000000000013,0.9488854065017587,0.00010790706890808933,12.566122591702866,1.0991213546159653,0.0004007846940657878,14.586364591558901,-0.0012831676999664737,0.004156603147773996,-2.1638825153755693e-06,-0.00475023131939331,0.005670693060613199,3.7773267840831386e-21
1.7300000000000013,0.9599408657122309,0.00011206937142393825,12.712844738614459,1.1055459210472194,0.00041623025158489204,14.67221469115919,-0.0013324977580045053,0.004213361046297104,-2.2381130450426206e-06,-0.004932974737225767,0.005675794706901922,5.90895499136344e-21
1.7400000000000013,0.9710605509984678,0.00011638081829469183,12.860425503368141,1.1119685286236891,0.00043114468707535804,14.758076475368306,-0.0013835924786741267,0.004269888137568234,-2.314880123151881e-06,-0.005109439503986577,0.005652714340340622,5.90895499136344e-21
1.7500000000000013,0.9822444584785495,0.00012084415970614367,13.00886500916019,1.1183907480081636,0.0004463341411451837,14.84395057920472,-0.0014364842947261454,0.0043260880111948286,-2.3941248867318876e-06,-0.00528914754460974,0.0056199929501543535,8.75112593440384e-21
1.7600000000000013,0.9934925900658266,0.00012545793163861281,13.158163377772029,1.1248131587277146,0.00046137719324691414,14.929836861184043,-0.0014911558401778046,0.004381932844894854,-2.475872508203754e-06,-0.005467118950857896,0.005584489353862637,1.2303839613204342e-20
1.7700000000000014,1.0048049400443733,0.0001302293936496091,13.3083207344632,1.1312349978546783,0.00047714620109962894,15.015735669117085,-0.0015476928142182374,0.004437304449338653,-2.5600063537438954e-06,-0.005653660302901578,0.005537166836778455,6.61949772712354e-21
1.7800000000000014,1.0161815166695156,0.00013516504476241293,13.459337202015984,1.1376576625142452,0.0004935651112803828,15.101646755278484,-0.0016061719589302234,0.0044922499128599025,-2.646652570087514e-06,-0.005847875784250956,0.005494553184608029,6.61949772712354e-21
1.7900000000000014,1.0276223450857966,0.00014026542149866855,13.611212899468926,1.1440828416281024,0.0005100376736255611,15.187569745294256,-0.0016665996059750067,0.004547016129028636,-2.736272222898339e-06,-0.006042724198311583,0.005476628950242161,6.61949772712354e-21
1.8000000000000014,1.0391274217583661,0.00014552186340981152,13.763947943415827,1.1505076672569425,0.0005256441911142952,15.273504394690192,-0.0017288734445619323,0.004601511139922243,-2.8287914501439956e-06,-0.006227341536565377,0.0054495089438428785,9.461668670163941e-21
1.8100000000000014,1.0506967419412732,0.0001509335361480567,13.917542456719787,1.1569320182907046,0.0005411672738245188,15.359451330396022,-0.0017929835479689469,0.004655628347800533,-2.9240891029349517e-06,-0.0064109662301110575,0.005411729179286533,9.461668670163941e-21
1.8200000000000014,1.0623303107079798,0.00015649225125684575,14.071996559740423,1.1633568766706572,0.0005558715108789041,15.445410302063634,-0.0018588331416497812,0.004709377336127529,-3.0222310142194583e-06,-0.006584913411688186,0.005374907793495508,1.0882754141684142e-20
1.8300000000000014,1.0740281400256497,0.00016219804858127914,14.22731037147176,1.1697829317669899,0.0005705797324433393,15.53138117313357,-0.0019264227277730433,0.004762849216506382,-3.123434644606497e-06,-0.006758910679709228,0.0053471976158275735,1.0882754141684142e-20
1.8400000000000014,1.0857902399792436,0.00016805491217183253,14.38348401170614,1.1762099953593883,0.0005856863590553387,15.617364023438075,-0.0019957994009022818,0.004816112802709771,-3.2278917848106714e-06,-0.006937617281925957,0.005326368863906535,8.040583198643741e-21
1.8500000000000014,1.0976166142489137,0.00017406656486968354,14.540517602394516,1.1826374269669946,0.0006011652697851004,15.703359068837639,-0.002067007118943953,0.004869161103765229,-3.3356556883165026e-06,-0.007120719616554981,0.005304841052128792,6.619497727123541e-21
1.8600000000000014,1.10950726945139,0.00018021621704921096,14.698411263709337,1.1890655202476492,0.0006149652179527433,15.789366131482073,-0.002139847548031144,0.004922021919633535,-3.4468460696902674e-06,-0.0072839884729717485,0.005286093281900257,8.040583198643741e-21
1.8700000000000014,1.1214622233672489,0.0001865018050669639,14.857165116219278,1.1954953915858686,0.0006285588017752959,15.875385250994112,-0.002214296337805793,0.004974854898509351,-3.561868855649986e-06,-0.007444822057648199,0.005283310409307874,1.0882754141684142e-20
1.8800000000000014,1.1334814544354017,0.00019291208217946646,15.016779278347808,1.2019231068152894,0.0006410277112502552,15.961416212853127,-0.002290220727400657,0.005027355078411677,-3.6801145124434106e-06,-0.007592379822094708,0.005250031307310034,1.0882754141684142e-20
1.8900000000000015,1.1455649558269219,0.00019945396438674588,15.177253876744835,1.208350139152019,0.0006541882207279421,16.047459839702746,-0.002367702291742547,0.00507939105581201,-3.8013060674278037e-06,-0.007748095190087277,0.005203611853700154,8.040583198643741e-21
1.9000000000000015,1.1577127189567957,0.00020611972470738186,15.33858903073489,1.2147763129873939,0.0006665760320635974,16.13351539900561,-0.0024466498495128736,0.005130811133208457,-3.925085099313122e-06,-0.007894692585120495,0.005142022638673424,6.619497727123541e-21
1.9100000000000015,1.1699247656066687,0.00021289694173733315,15.500784857046117,1.221204664987292,0.0006777217029951296,16.219582631122577,-0.0025269168752676857,0.005181822413821591,-4.051941051109575e-06,-0.00802663716308327,0.005101143835658168,5.1984122556033404e-21
1.9200000000000015,1.1822011200019689,0.000219769068903742,15.6638414704994,1.2276354395300242,0.0006872127166408853,16.3056613453282,-0.0026083082187348837,0.005232660949699097,-4.182476770297648e-06,-0.008139066372170177,0.005083870347176067,2.3562413125629394e-21
1.9300000000000015,1.1945417819605193,0.0002267302561909306,15.827758993553005,1.2340661958550512,0.0006961187287188597,16.391752305360477,-0.002690754845792261,0.005283274081243627,-4.316580025775542e-06,-0.008244592193246483,0.0050613309212098456,2.3562413125629394e-21
1.9400000000000015,1.2069467585952414,0.0002337612043535372,15.992537545393262,1.240497663472199,0.0007030948162606618,16.477855184025778,-0.0027740290348556218,0.005333695491603674,-4.454353365136504e-06,-0.008327345768147754,0.0050421598597365225,3.77732678408314e-21
1.9500000000000015,1.2194160477869542,0.00024087717442872972,16.158177248067936,1.2469289191712922,0.0007115970075192512,16.563970267467443,-0.0028583110566740948,0.005383849675385077,-4.595598476571936e-06,-0.008428126490399764,0.005015438267877535,3.77732678408314e-21
1.9600000000000015,1.2319496468946236,0.0002480843826422525,16.32467822553864,1.2533599107669424,0.0007207208213522786,16.650097747070614,-0.0029436743131649196,0.005433654849939407,-4.74008544237587e-06,-0.008536247498278526,0.004980538414429209,-4.859296304774616e-22
1.9700000000000015,1.2445475653717422,0.0002553642938817535,16.492040596821003,1.2597918477118468,0.0007279911239500996,16.736237128236052,-0.003029900172804456,0.0054831723314938685,-4.8879862676626685e-06,-0.00862250523220513,0.004951770244075008,-1.907015101997662e-21
1.9800000000000015,1.2572097955684456,0.0002627209550031046,16.6602644815658,1.2662230196703492,0.0007356661121351089,16.822388474479713,-0.0031170365870524276,0.005532261491120183,-5.038863011033257e-06,-0.008713558324828344,0.004908939149584072,9.351558410427391e-22
1.9900000000000015,1.2699363468639124,0.000270145942506672,16.82934999871761,1.2726551295466755,0.0007424987503567401,16.90855171518086,-0.003204984340250276,0.00558098276517871,-5.1928743586972075e-06,-0.008794689740199192,0.004872151748668449,2.3562413125629398e-21
2.0000000000000013,1.2827272319616663,0.0002776424759303585,16.99929727007694,1.279088509775382,0.0007496533423686475,16.994727135933157,-0.0032937815535253098,0.005629435627581225,-5.350319290943831e-06,-0.008879633075049985,0.004845311821405392,2.3562413125629398e-21
2.010000000000001,1.2955824721850486,0.0002852056476805175,17.170106417335184,1.2855240223382303,0.0007563171750159044,17.080914725824254,-0.0033833704347650136,0.005677821271971251,-5.5118616236514775e-06,-0.008958796792676216,0.004838591406249245,-4.859296304774612e-22
2.020000000000001,1.3085020751191185,0.0002928284676134893,17.34177756252737,1.2919602934069865,0.0007622819932971743,17.167114519218405,-0.003473668612641106,0.005726178710592444,-5.6776593909601755e-06,-0.00902972324847509,0.004835772285405445,-4.859296304774612e-22
2.0300000000000007,1.3214860390398702,0.0003005062213306464,17.514310828806238,1.2983963920751591,0.000767775371715709,17.253326627886935,-0.0035646205389000462,0.0057744370201326944,-5.847490868091413e-06,-0.009095094966339205,0.004825860838272311,9.351558410427393e-22
2.0400000000000005,1.334534356356745,0.0003082111625086531,17.687706337653637,1.3048317316875033,0.0007704941178006693,17.339550884740014,-0.0036558989732582703,0.005822456173710577,-6.02085615339365e-06,-0.00912774290969696,0.004801946653668254,2.3562413125629398e-21
2.0500000000000003,1.3476470614019624,0.0003159394280752771,17.861964205318706,1.3112705045217363,0.0007728265566623998,17.42578676650677,-0.0037474587490826574,0.00587059115237909,-6.199040245556805e-06,-0.009155873405513151,0.0048135308470331,3.77732678408314e-21
2.06,1.3608241549796025,0.0003236879922609432,18.037084553507754,1.317709357764006,0.0007748564185666103,17.51203481890482,-0.0038392643564973987,0.005918800950616143,-6.381921495137973e-06,-0.009180452937382256,0.004821014511545207,3.42205541620309e-21
2.07,1.3740656283006136,0.0003314640423756771,18.213067505311418,1.3241473321011044,0.0007776050114733894,17.598295180366517,-0.0039314007179475615,0.00596693129538961,-6.56892813299427e-06,-0.009213525008350475,0.004813070807602879,5.55368362348339e-21
2.0799999999999996,1.3873714681706724,0.000339275947410448,18.3899131861324,1.3305839870058627,0.0007811905034770894,17.68456808209837,-0.004023966577496017,0.006014775799610073,-6.75924285396725e-06,-0.009256471938999577,0.004784488273731065,5.55368362348339e-21
2.0899999999999994,1.4007416809255844,0.00034712038150543984,18.56762171535651,1.3370212754912048,0.0007844434094991864,17.770852922410754,-0.004116922999390173,0.006062358891685715,-6.952931804154842e-06,-0.009295525227995533,0.004758348628591953,5.55368362348339e-21
2.099999999999999,1.4141762783606837,0.00035497699196505747,18.746193213215967,1.3434597435099322,0.0007856610459617614,17.857149785945918,-0.004210030190652251,0.006109769329481152,-7.150328848632825e-06,-0.009310598988098539,0.004741084873476493,3.422055416203089e-21
2.109999999999999,1.4276752601567262,0.0003628686366434788,18.92562780134172,1.3498981796042586,0.0007891644678421337,17.94345881257511,-0.004303557960419015,0.0061569528728833145,-7.351184467690314e-06,-0.00935265378370951,0.004718397091215291,6.2642263592434895e-21
2.1199999999999988,1.4412386510609692,0.00037078222747189717,19.10592560128239,1.3563390904243047,0.0007913590828418383,18.029779994067095,-0.0043973521682334855,0.006204150907131556,-7.556522612078322e-06,-0.009379293870208253,0.004719848091526953,6.2642263592434895e-21
2.1299999999999986,1.4548664594701943,0.00037870757146849995,19.287086734167413,1.3627808409225275,0.0007925343996602793,18.116113288502362,-0.004491292860007965,0.006251412000552348,-7.766571609917148e-06,-0.009393938362619684,0.004726156019233471,4.843140887723289e-21
2.1399999999999983,1.4685587050498516,0.00038664120931315444,19.46911131861844,1.3692245579657385,0.00079336378446545,18.202458445102767,-0.004585339639159236,0.006298917771288881,-7.98217354629465e-06,-0.009404542620476094,0.004750625998029812,4.665505203783264e-21
2.149999999999998,1.4823153920737897,0.00039457226587638557,19.65199947682673,1.3756687023938026,0.000793105656323111,18.28881582082878,-0.004679364491212331,0.006346668069381334,-8.203375742026064e-06,-0.009402345342887175,0.004775081044394457,4.310233835903214e-21
2.159999999999998,1.4961365242136415,0.0004024796576636542,19.83575132901875,1.3821132139851873,0.0007907391787268623,18.37518521920182,-0.004773119171072718,0.006394655788801495,-8.430183600160492e-06,-0.009375323493598224,0.004798825540225609,4.310233835903214e-21
2.1699999999999977,1.510022112355744,0.00041035689686237783,20.020366994726817,1.3885588142102596,0.000787723919872367,18.46156657080684,-0.004866527588380101,0.006442958929198994,-8.663002804542956e-06,-0.009340692287785949,0.004830370147839863,4.310233835903214e-21
2.1799999999999975,1.523972170864946,0.00041820788512326616,20.20584659761173,1.3950058509201966,0.0007850988260888326,18.547960288490938,-0.004959635912495203,0.006491696170300321,-8.90245978878981e-06,-0.009310677546071565,0.004873782934372522,2.8891483643830136e-21
