scenario_idx,timestep,t_sim,adv_ctrl_pitch,adv_ctrl_yaw,adv_ctrl_throttle,base_ctrl_pitch,base_ctrl_yaw,base_ctrl_throttle,state_norm,safe_flag,active_controller,switch_event,recovery_timestep
0,0,0.0,-0.24165656700577054,-0.0250958911418524,0.3922275864770602,0.0,0.0,0.3333333333333333,1.05,False,SAFETY,False,-1
0,1,0.01,2.597582950849932,-5.661336733008501,0.49334678112754954,0.0,0.0,0.3333333333333333,1.05,False,SAFETY,False,-1
0,2,0.02,3.6458242811089083,4.694961472327995,0.49453684812342374,0.0,0.0,0.3333333333333333,1.05,False,SAFETY,False,-1
0,3,0.03,0.3859263647389164,-5.669455974238722,0.4958815317624711,0.0,0.0,0.3333333333333333,1.05,False,SAFETY,False,-1
0,4,0.04,4.841016847860957,-1.0613071259909215,0.49727033830822726,0.0,0.0,0.3333333333333333,1.05,False,SAFETY,False,-1
0,5,0.05,-12.381700799981784,3.876432456806638,0.49861757662466133,0.0,0.0,0.3333333333333333,1.05,False,SAFETY,False,-1
0,6,0.06,20.564455728066005,-6.786989518119683,0.499955770705595,0.0,0.0,0.3333333333333333,1.05,False,SAFETY,False,-1
0,7,0.07,-3.2800455851668295,1.9616639302452037,0.5010973886154249,0.0,0.0,0.3333333333333333,1.05,False,SAFETY,False,-1
0,8,0.08,-4.285735533265063,2.11255962517352,0.5020793898286013,0.0,0.0,0.3333333333333333,1.05,False,SAFETY,False,-1
0,9,0.09,1.83054626919201,-3.567383775046708,0.5029427374965136,0.0,0.0,0.3333333333333333,1.05,False,SAFETY,False,-1
0,10,0.1,9.873128652459489,1.0134794007330434,0.2922918255745521,0.0,0.0,0.3333333333333333,1.05,False,SAFETY,False,-1
0,11,0.11,1.350591008574585,1.1560869419419084,0.49345806109666734,0.0,0.0,0.3333333333333333,1.05,False,SAFETY,False,-1
0,12,0.12,-5.55007543634555,-0.4541545742925988,0.49473428525121377,0.0,0.0,0.3333333333333333,1.05,False,SAFETY,False,-1
0,13,0.13,11.924696896194641,-2.7201849209083893,0.4961322552674759,0.0,0.0,0.3333333333333333,1.05,False,SAFETY,False,-1
0,14,0.14,6.511335943291163,-2.069492824444122,0.49756364366277245,0.0,0.0,0.3333333333333333,1.05,False,SAFETY,False,-1
0,15,0.15,-4.814915320182742,3.902465144515083,0.4989297996472884,0.0,0.0,0.3333333333333333,1.05,False,SAFETY,False,-1
0,16,0.16,4.851187212074092,-5.711957385058023,0.5002357012504366,0.0,0.0,0.3333333333333333,1.05,False,SAFETY,False,-1
0,17,0.17,1.3418830494073577,0.6088414151828517,0.5013650118400196,0.0,0.0,0.3333333333333333,1.05,False,SAFETY,False,-1
0,18,0.18,0.34831012779544956,-0.061368866652363074,0.5023266166662589,0.0,0.0,0.3333333333333333,1.05,False,SAFETY,False,-1
0,19,0.19,3.930779128583418,-1.7342101588095482,0.5031539674595169,0.0,0.0,0.3333333333333333,1.05,False,SAFETY,False,-1
0,20,0.2,53.332211320549185,2.6623428646033123,0.29972100128698553,0.0,0.0,0.3333333333333333,1.05,False,SAFETY,False,-1
0,21,0.21,2.466312080641755,-3.243380262335317,0.4935259587111864,0.0,0.0,0.3333333333333333,1.05,False,SAFETY,False,-1
0,22,0.22,15.67022516800198,1.0373420384258718,0.4948585084049331,0.0,0.0,0.3333333333333333,1.05,False,SAFETY,False,-1
0,23,0.23,2.26847419509871,-1.5512762790357537,0.4962672087850022,0.0,0.0,0.3333333333333333,1.05,False,SAFETY,False,-1
0,24,0.24,-11.109852674592128,-3.5460095801660834,0.49769466051377653,0.0,0.0,0.3333333333333333,1.05,False,SAFETY,False,-1
0,25,0.25,-6.30832986098047,0.5726229683461453,-0.3992799105968142,0.0,0.0,0.3333333333333333,1.05,False,SAFETY,True,-1
0,26,0.26,2.1428937359262394,-0.29396895048671334,-0.4002935803577066,0.0,0.0,0.3333333333333333,1.05,False,SAFETY,False,-1
0,27,0.27,-9.734010854588105,0.4186405583939905,-0.40119763171683065,0.0,0.0,0.3333333333333333,1.05,False,SAFETY,False,-1
0,28,0.28,1.8533858829963294,-0.9528203098278972,-0.40195615012937946,0.0,0.0,0.3333333333333333,1.05,False,SAFETY,False,-1
0,29,0.29,-7.422204469266252,1.4229843423876394,-0.40260705279150577,0.0,0.0,0.3333333333333333,1.05,False,SAFETY,False,-1
0,30,0.3,64.1931484194204,-2.110681287606797,-0.2397838194056206,0.0,0.0,0.3333333333333333,0.0,True,ADVANCED,True,30
0,31,0.31,-0.011299152486667463,3.9574812647128725,-0.39484258720389775,-1.315959516030321e-05,8.442725150427188e-06,0.3333333333333333,1.05,False,SAFETY,False,30
0,32,0.32,6.528354627991243,-2.257705131010676,-0.3958421603872073,-1.3480558004753975e-05,8.442691379526587e-06,0.3333333333333333,1.05,False,SAFETY,False,30
0,33,0.33,2.682530903178191,2.31849098049528,-0.3969398975067218,-1.3801520785012175e-05,8.44265760876107e-06,0.3333333333333333,1.05,False,SAFETY,False,30
0,34,0.34,-5.270518914657849,-0.26723573354409214,-0.39806707913229955,-1.4122483501077816e-05,8.442623838130635e-06,0.3333333333333333,1.05,False,SAFETY,False,30
0,35,0.35000000000000003,7.589215428363068,1.4643786452165761,-0.3991464459297652,-1.4443446152950917e-05,8.442590067635283e-06,0.3333333333333333,1.05,False,SAFETY,False,30
0,36,0.36,-10.48602056271762,-2.970962935473337,-0.40014820302050574,-1.4764408740631486e-05,8.442556297275013e-06,0.3333333333333333,1.05,False,SAFETY,False,30
0,37,0.37,6.5992912690047305,1.9963533612197197,-0.4010231781900614,-1.5085371264119539e-05,8.442522527049823e-06,0.3333333333333333,1.05,False,SAFETY,False,30
0,38,0.38,4.702755669519937,-2.069272057306385,-0.4017557612572583,-1.5406333723415087e-05,8.442488756959714e-06,0.3333333333333333,1.05,False,SAFETY,False,30
0,39,0.39,-8.131815875001863,5.572785990143349,-0.40240921745028224,-1.572729611851814e-05,8.442454987004688e-06,0.3333333333333333,1.05,False,SAFETY,False,30
0,40,0.4,30.1792262704353,-3.589327801598352,-0.2397878449414771,-1.6048258449428718e-05,8.44242121718474e-06,0.3333333333333333,2.819449525789217e-09,True,ADVANCED,False,30
0,41,0.41000000000000003,7.092217287192655,4.162202710488738,-0.39480378267343713,-2.255597069293164e-05,2.2799732431516373e-05,0.3333333333333333,1.05,False,SAFETY,False,30
0,42,0.42,1.0904810910865652,-2.5227283294680496,-0.3957683575331862,-2.3027822069170618e-05,2.2799641232586645e-05,0.3333333333333333,1.05,False,SAFETY,False,30
0,43,0.43,7.943504272887724,0.6537930761019402,-0.3967930621042885,-2.349967335103932e-05,2.2799550034021713e-05,0.3333333333333333,1.05,False,SAFETY,False,30
0,44,0.44,-1.2530525229700251,-1.3260387783319125,-0.3978527019656316,-2.3971535640768012e-05,2.2799458835821574e-05,0.3333333333333333,1.05,False,SAFETY,False,30
0,45,0.45,3.202464795233428,2.221373705356672,-0.39890482695801877,-2.444339783612425e-05,2.279936763798623e-05,0.3333333333333333,1.05,False,SAFETY,False,30
0,46,0.46,-7.713692442927876,1.1238846590861762,-0.39988410536075425,-2.49152488348778e-05,2.2799276440515678e-05,0.3333333333333333,1.05,False,SAFETY,False,30
0,47,0.47000000000000003,5.821987736170548,1.155963594347612,-0.4007366117491774,-2.5387099739261154e-05,2.2799185243409916e-05,0.3333333333333333,1.05,False,SAFETY,False,30
0,48,0.48,-6.022362100417489,3.735447307264805,-0.4014884781551965,-2.585896165150457e-05,2.279909404666894e-05,0.3333333333333333,1.05,False,SAFETY,False,30
0,49,0.49,10.882448726124169,-3.5524837480968667,-0.40208240283128016,-2.6330812367145365e-05,2.2799002850292752e-05,0.3333333333333333,1.05,False,SAFETY,False,30
0,50,0.5,-63.63810993153864,2.2867173353104078,-0.23979013894761297,-2.6802662988416013e-05,2.2798911654281347e-05,0.3333333333333333,5.482508852266664e-09,True,ADVANCED,False,30
0,51,0.51,-7.687297976989544,0.47425999424443593,-0.3947534845193447,-1.4228718071179222e-05,1.3652042393107725e-05,0.3333333333333333,1.05,False,SAFETY,False,30
0,52,0.52,-11.149756586156725,-1.0824175183153357,-0.3956796790039999,-1.4382381194048053e-05,1.3651987784938134e-05,0.3333333333333333,1.05,False,SAFETY,False,30
0,53,0.53,4.478615922663825,-2.3941835910989875,-0.3966251310950522,-1.4536044286184264e-05,1.3651933176986978e-05,0.3333333333333333,1.05,False,SAFETY,False,30
0,54,0.54,-8.965197815900597,4.665229650563407,-0.3976464834535039,-1.4689718449818102e-05,1.3651878569254252e-05,0.3333333333333333,1.05,False,SAFETY,False,30
0,55,0.55,4.751478332173657,-2.32474390808223,-0.39860691831046646,-1.4843381480486863e-05,1.3651823961739958e-05,0.3333333333333333,1.05,False,SAFETY,False,30
0,56,0.56,-6.286081739827197,1.588182190758531,-0.39954247866516157,-1.499704448042302e-05,1.3651769354444093e-05,0.3333333333333333,1.05,False,SAFETY,False,30
0,57,0.5700000000000001,-5.068202523202185,-1.46108986339599,-0.400363200853191,-1.5150718551856822e-05,1.3651714747366658e-05,0.3333333333333333,1.05,False,SAFETY,False,30
0,58,0.58,-3.039905779949267,3.2072878071163142,-0.40109248966764205,-1.5304381490325564e-05,1.365166014050765e-05,0.3333333333333333,1.05,False,SAFETY,False,30
0,59,0.59,-2.676546992620238,-0.8397699340846221,-0.4016958803864892,-1.545804439806172e-05,1.365160553386707e-05,0.3333333333333333,1.05,False,SAFETY,False,30
0,60,0.6,69.38616812662521,-1.2685925943260667,-0.2397902301694054,-1.5611718377295543e-05,1.3651550927444917e-05,0.3333333333333333,5.43158720306239e-09,True,ADVANCED,False,30
0,61,0.61,-5.276170471490882,3.1757160694665147,-0.3947351989065551,-2.998955156656108e-05,1.8725921167326782e-05,0.3333333333333333,1.05,False,SAFETY,False,30
0,62,0.62,13.004398097615411,-2.685367627125606,-0.395584771086443,-3.0490145130234407e-05,1.8725846263642124e-05,0.3333333333333333,1.05,False,SAFETY,False,30
0,63,0.63,3.4302509482607193,1.4050015771604114,-0.3965033647829884,-3.099073859378902e-05,1.872577136025708e-05,0.3333333333333333,1.05,False,SAFETY,False,30
0,64,0.64,10.017981143475774,-2.564035163680817,-0.3974241152707205,-3.149133195722495e-05,1.872569645717165e-05,0.3333333333333333,1.05,False,SAFETY,False,30
0,65,0.65,6.689142166494282,4.559495589870932,-0.39837177960325854,-3.19919252205422e-05,1.8725621554385832e-05,0.3333333333333333,1.05,False,SAFETY,False,30
0,66,0.66,3.2133761691274163,-0.5743765061143555,-0.39924788403470063,-3.2492518383740806e-05,1.8725546651899624e-05,0.3333333333333333,1.05,False,SAFETY,False,30
0,67,0.67,6.448224423280855,0.3898799675595133,-0.4000509288708183,-3.299311144682078e-05,1.8725471749713025e-05,0.3333333333333333,1.05,False,SAFETY,False,30
0,68,0.68,6.6027147931179515,0.7371686983927503,-0.40075125165635384,-3.3493693307551885e-05,1.8725396847826035e-05,0.3333333333333333,1.05,False,SAFETY,False,30
0,69,0.6900000000000001,2.218373513590538,-0.8187617999650977,-0.4013498721220738,-3.3994286170396875e-05,1.8725321946238655e-05,0.3333333333333333,1.05,False,SAFETY,False,30
0,70,0.7000000000000001,-55.69503015306606,0.9626629590490968,-0.23979077840363763,-3.449487893312329e-05,1.872524704495088e-05,0.3333333333333333,5.287178057380384e-09,True,ADVANCED,False,30
0,71,0.71,4.4730344989720745,-2.6317490625971067,-0.39464602148018363,-2.3577995220698646e-05,1.4874595352873661e-05,0.3333333333333333,1.05,False,SAFETY,False,30
0,72,0.72,-8.960119870332775,0.08095489962708602,-0.3954536147599273,-2.3800112825416516e-05,1.487453585449223e-05,0.3333333333333333,1.05,False,SAFETY,False,30
0,73,0.73,14.034242851873877,2.2130243218934624,-0.39626515492122477,-2.4022230385710863e-05,1.4874476356348793e-05,0.3333333333333333,1.05,False,SAFETY,False,30
0,74,0.74,-6.228069676244874,-0.5674126664295724,-0.39711923687770745,-2.42443479015817e-05,1.4874416858443348e-05,0.3333333333333333,1.05,False,SAFETY,False,30
0,75,0.75,-3.108220557550902,-0.06754409568897,-0.3979743511793097,-2.4466465373029032e-05,1.4874357360775896e-05,0.3333333333333333,1.05,False,SAFETY,False,30
0,76,0.76,4.763401830509397,0.4901529810163361,-0.3987927994440017,-2.468859390228312e-05,1.4874297863346434e-05,0.3333333333333333,1.05,False,SAFETY,False,30
0,77,0.77,0.15247883211628183,0.6158737714129872,-0.3995556684002752,-2.4910700182651012e-05,1.4874238366154962e-05,0.3333333333333333,1.05,False,SAFETY,False,30
0,78,0.78,6.7585487302406015,2.092693348674924,-0.40022966213355143,-2.5132828623058138e-05,1.4874178869201479e-05,0.3333333333333333,1.05,False,SAFETY,False,30
0,79,0.79,0.014987061305234129,-0.7939333619923719,-0.40080727790864046,-2.5354934814579086e-05,1.4874119372485982e-05,0.3333333333333333,1.05,False,SAFETY,False,30
0,80,0.8,-63.774635564462564,-1.427976053754752,-0.23979125423278955,-2.5577063166139294e-05,1.4874059876008472e-05,0.3333333333333333,5.101328017889693e-09,True,ADVANCED,False,30
0,81,0.81,-0.49357552862965176,-1.1332658973540304,-0.394600455929969,-1.2725369011870513e-05,2.058596429605373e-05,0.3333333333333333,1.05,False,SAFETY,False,30
0,82,0.8200000000000001,-2.2903890973260075,4.374445071798828,-0.3953436247919111,-1.2628621632064036e-05,2.0585881952196486e-05,0.3333333333333333,1.05,False,SAFETY,False,30
0,83,0.8300000000000001,1.975526227237706,-1.6216477992828002,-0.39606954523198656,-1.253187427160704e-05,2.0585799608668615e-05,0.3333333333333333,1.05,False,SAFETY,False,30
0,84,0.84,0.2322966648435422,-0.9266128288528386,-0.39681841770189413,-1.243511582826927e-05,2.0585717265470122e-05,0.3333333333333333,1.05,False,SAFETY,False,30
0,85,0.85,-1.3678212433776213,2.5970741142612077,-0.39759485987133314,-1.233835740428319e-05,2.0585634922601e-05,0.3333333333333333,1.05,False,SAFETY,False,30
0,86,0.86,6.309716890863952,-2.0584119472912428,-0.3983232213424652,-1.2241610101879045e-05,2.058555258006125e-05,0.3333333333333333,1.05,False,SAFETY,False,30
0,87,0.87,-7.184592670246116,-0.14473229391467193,-0.3990268380567705,-1.2144851716594114e-05,2.0585470237850866e-05,0.3333333333333333,1.05,False,SAFETY,False,30
0,88,0.88,7.565592208234477,2.10162676480858,-0.39966350878451473,-1.204809335066086e-05,2.0585387895969855e-05,0.3333333333333333,1.05,False,SAFETY,False,30
0,89,0.89,-9.409775196170495,2.4853968133506856,-0.4002402142949329,-1.195134610630953e-05,2.058530555441821e-05,0.3333333333333333,1.05,False,SAFETY,False,30
0,90,0.9,-62.427620291955876,-2.2660939357928265,-0.23979244070194072,-1.1854598881307652e-05,2.0585223213195933e-05,0.3333333333333333,6.154522932909266e-09,True,ADVANCED,False,30
0,91,0.91,-15.649265768415987,0.52245004333857,-0.3945896761659282,1.0398203202169783e-06,2.9649599202328804e-05,0.3333333333333333,1.05,False,SAFETY,False,30
0,92,0.92,-16.334083531950597,0.9020120876283759,-0.3952723533967627,1.4487152528408386e-06,2.9649480603931886e-05,0.3333333333333333,1.05,False,SAFETY,False,30
0,93,0.93,-18.670025985187422,-2.4965827003509684,-0.3959518083111919,1.8575990014554681e-06,2.964936200600936e-05,0.3333333333333333,1.05,False,SAFETY,False,30
0,94,0.9400000000000001,-16.075473968649487,1.3003621339680522,-0.3966611180056431,2.2664826682933424e-06,2.9649243408561224e-05,0.3333333333333333,1.05,False,SAFETY,False,30
0,95,0.9500000000000001,-21.081310898038485,-0.48469357489311654,-0.39736109242469464,2.675377355584728e-06,2.964912481158748e-05,0.3333333333333333,1.05,False,SAFETY,False,30
0,96,0.96,-17.385996308335965,-0.5826329341881492,-0.39804410928267697,3.084271961097173e-06,2.964900621508813e-05,0.3333333333333333,1.05,False,SAFETY,False,30
0,97,0.97,-18.747178216002638,4.131171740923683,-0.39870789187290695,3.4931553826004447e-06,2.9648887619063158e-05,0.3333333333333333,1.05,False,SAFETY,False,30
0,98,0.98,-13.255354790870232,-1.2173159070866406,-0.3992908276041482,3.902049824557275e-06,2.9648769023512572e-05,0.3333333333333333,1.05,False,SAFETY,False,30
0,99,0.99,-21.747504115111887,-2.520773215260691,-0.3998126626795638,4.310933082504973e-06,2.964865042843637e-05,0.3333333333333333,1.05,False,SAFETY,False,30
1,0,0.0,-0.1507936341763948,-0.6191525323352657,0.40010931653600845,0.0,0.0,0.3333333333333333,1.05,False,SAFETY,False,-1
1,1,0.01,2.0833459900968054,1.5537346235324758,0.5006153908533271,0.0,0.0,0.3333333333333333,1.05,False,SAFETY,False,-1
1,2,0.02,-6.051234502469269,2.0345427672097176,0.5014795342211587,0.0,0.0,0.3333333333333333,1.05,False,SAFETY,False,-1
1,3,0.03,4.73361897127498,-2.90431089609578,0.5026079781463797,0.0,0.0,0.3333333333333333,1.05,False,SAFETY,False,-1
1,4,0.04,-2.6796805069792793,-5.052007115384955,0.5037742483859058,0.0,0.0,0.3333333333333333,1.05,False,SAFETY,False,-1
1,5,0.05,1.5912137612056998,2.9740733828821595,0.5048177966073253,0.0,0.0,0.3333333333333333,1.05,False,SAFETY,False,-1
1,6,0.06,5.045323086290186,-2.928826371973365,0.5057370705179065,0.0,0.0,0.3333333333333333,1.05,False,SAFETY,False,-1
1,7,0.07,1.2454136649942618,-1.7643474286696297,0.5064981750547153,0.0,0.0,0.3333333333333333,1.05,False,SAFETY,False,-1
1,8,0.08,-5.120579197509558,-2.3650323604923664,0.5071343719660725,0.0,0.0,0.3333333333333333,1.05,False,SAFETY,False,-1
1,9,0.09,4.313640971045127,-1.6361610871678165,0.5076471434033731,0.0,0.0,0.3333333333333333,1.05,False,SAFETY,False,-1
1,10,0.1,22.5397464904851,3.9678495103576825,0.29970579648333495,0.0,0.0,0.3333333333333333,1.05,False,SAFETY,False,-1
1,11,0.11,-10.280293138082762,-6.069851481360665,0.5007504653701343,0.0,0.0,0.3333333333333333,1.05,False,SAFETY,False,-1
1,12,0.12,8.889309198935427,-0.9264746813898206,0.5016587171215721,0.0,0.0,0.3333333333333333,1.05,False,SAFETY,False,-1
1,13,0.13,-12.586116691391707,1.0071709496788601,0.5027822394931065,0.0,0.0,0.3333333333333333,1.05,False,SAFETY,False,-1
1,14,0.14,12.700607433006702,-0.29363115636059467,0.5039299237771446,0.0,0.0,0.3333333333333333,1.05,False,SAFETY,False,-1
1,15,0.15,-4.789811960169137,-1.841620155749478,0.5049748763846545,0.0,0.0,0.3333333333333333,1.05,False,SAFETY,False,-1
1,16,0.16,1.9452792476345406,-0.5748848127744915,0.5058649710719496,0.0,0.0,0.3333333333333333,1.05,False,SAFETY,False,-1
1,17,0.17,0.6173058905313672,-2.674522396764597,0.5066040176750215,0.0,0.0,0.3333333333333333,1.05,False,SAFETY,False,-1
1,18,0.18,4.668187445000801,-1.779257850322555,0.5072056048893138,0.0,0.0,0.3333333333333333,1.05,False,SAFETY,False,-1
1,19,0.19,-0.236325876999608,-2.2548866438069446,0.5076970945344212,0.0,0.0,0.3333333333333333,1.05,False,SAFETY,False,-1
1,20,0.2,-31.229799769929752,-0.2520078134071458,0.2997238175331651,0.0,0.0,0.3333333333333333,1.05,False,SAFETY,False,-1
1,21,0.21,1.5631910933312987,-3.1945239473991407,0.5007841603713084,0.0,0.0,0.3333333333333333,1.05,False,SAFETY,False,-1
1,22,0.22,-7.2357307973687695,-1.171823022942578,0.5017341220477523,0.0,0.0,0.3333333333333333,1.05,False,SAFETY,False,-1
1,23,0.23,1.4545310081166263,-0.8006606286374625,0.5028983839267283,0.0,0.0,0.3333333333333333,1.05,False,SAFETY,False,-1
1,24,0.24,5.373026560283023,0.2793289648885602,0.5040687349648112,0.0,0.0,0.3333333333333333,1.05,False,SAFETY,False,-1
1,25,0.25,50.0,50.0,1.0,0.0,0.0,0.3333333333333333,1.05,False,SAFETY,True,-1
1,26,0.26,50.0,50.0,1.0,0.0,0.0,0.3333333333333333,1.05,False,SAFETY,False,-1
1,27,0.27,50.0,50.0,1.0,0.0,0.0,0.3333333333333333,1.05,False,SAFETY,False,-1
1,28,0.28,50.0,50.0,1.0,0.0,0.0,0.3333333333333333,1.05,False,SAFETY,False,-1
1,29,0.29,50.0,50.0,1.0,0.0,0.0,0.3333333333333333,1.05,False,SAFETY,False,-1
1,30,0.3,50.0,50.0,1.0,0.0,0.0,0.3333333333333333,1.05,False,SAFETY,False,-1
1,31,0.31,50.0,50.0,1.0,0.0,0.0,0.3333333333333333,1.05,False,SAFETY,False,-1
1,32,0.32,50.0,50.0,1.0,0.0,0.0,0.3333333333333333,1.05,False,SAFETY,False,-1
1,33,0.33,50.0,50.0,1.0,0.0,0.0,0.3333333333333333,1.05,False,SAFETY,False,-1
1,34,0.34,50.0,50.0,1.0,0.0,0.0,0.3333333333333333,1.05,False,SAFETY,False,-1
1,35,0.35000000000000003,50.0,50.0,1.0,0.0,0.0,0.3333333333333333,1.05,False,SAFETY,False,-1
1,36,0.36,50.0,50.0,1.0,0.0,0.0,0.3333333333333333,1.05,False,SAFETY,False,-1
1,37,0.37,50.0,50.0,1.0,0.0,0.0,0.3333333333333333,1.05,False,SAFETY,False,-1
1,38,0.38,50.0,50.0,1.0,0.0,0.0,0.3333333333333333,1.05,False,SAFETY,False,-1
1,39,0.39,50.0,50.0,1.0,0.0,0.0,0.3333333333333333,1.05,False,SAFETY,False,-1
1,40,0.4,50.0,50.0,1.0,0.0,0.0,0.3333333333333333,1.05,False,SAFETY,False,-1
1,41,0.41000000000000003,50.0,50.0,1.0,0.0,0.0,0.3333333333333333,1.05,False,SAFETY,False,-1
1,42,0.42,50.0,50.0,1.0,0.0,0.0,0.3333333333333333,1.05,False,SAFETY,False,-1
1,43,0.43,50.0,50.0,1.0,0.0,0.0,0.3333333333333333,1.05,False,SAFETY,False,-1
1,44,0.44,50.0,50.0,1.0,0.0,0.0,0.3333333333333333,1.05,False,SAFETY,False,-1
1,45,0.45,50.0,50.0,1.0,0.0,0.0,0.3333333333333333,1.05,False,SAFETY,False,-1
1,46,0.46,50.0,50.0,1.0,0.0,0.0,0.3333333333333333,1.05,False,SAFETY,False,-1
1,47,0.47000000000000003,50.0,50.0,1.0,0.0,0.0,0.3333333333333333,1.05,False,SAFETY,False,-1
1,48,0.48,50.0,50.0,1.0,0.0,0.0,0.3333333333333333,1.05,False,SAFETY,False,-1
1,49,0.49,50.0,50.0,1.0,0.0,0.0,0.3333333333333333,1.05,False,SAFETY,False,-1
1,50,0.5,50.0,50.0,1.0,0.0,0.0,0.3333333333333333,1.05,False,SAFETY,False,-1
1,51,0.51,50.0,50.0,1.0,0.0,0.0,0.3333333333333333,1.05,False,SAFETY,False,-1
1,52,0.52,50.0,50.0,1.0,0.0,0.0,0.3333333333333333,1.05,False,SAFETY,False,-1
1,53,0.53,50.0,50.0,1.0,0.0,0.0,0.3333333333333333,1.05,False,SAFETY,False,-1
1,54,0.54,50.0,50.0,1.0,0.0,0.0,0.3333333333333333,1.05,False,SAFETY,False,-1
1,55,0.55,50.0,50.0,1.0,0.0,0.0,0.3333333333333333,1.05,False,SAFETY,False,-1
1,56,0.56,50.0,50.0,1.0,0.0,0.0,0.3333333333333333,1.05,False,SAFETY,False,-1
1,57,0.5700000000000001,50.0,50.0,1.0,0.0,0.0,0.3333333333333333,1.05,False,SAFETY,False,-1
1,58,0.58,50.0,50.0,1.0,0.0,0.0,0.3333333333333333,1.05,False,SAFETY,False,-1
1,59,0.59,50.0,50.0,1.0,0.0,0.0,0.3333333333333333,1.05,False,SAFETY,False,-1
1,60,0.6,50.0,50.0,1.0,0.0,0.0,0.3333333333333333,1.05,False,SAFETY,False,-1
1,61,0.61,50.0,50.0,1.0,0.0,0.0,0.3333333333333333,1.05,False,SAFETY,False,-1
1,62,0.62,50.0,50.0,1.0,0.0,0.0,0.3333333333333333,1.05,False,SAFETY,False,-1
1,63,0.63,50.0,50.0,1.0,0.0,0.0,0.3333333333333333,1.05,False,SAFETY,False,-1
1,64,0.64,50.0,50.0,1.0,0.0,0.0,0.3333333333333333,1.05,False,SAFETY,False,-1
1,65,0.65,50.0,50.0,1.0,0.0,0.0,0.3333333333333333,1.05,False,SAFETY,False,-1
1,66,0.66,50.0,50.0,1.0,0.0,0.0,0.3333333333333333,1.05,False,SAFETY,False,-1
1,67,0.67,50.0,50.0,1.0,0.0,0.0,0.3333333333333333,1.05,False,SAFETY,False,-1
1,68,0.68,50.0,50.0,1.0,0.0,0.0,0.3333333333333333,1.05,False,SAFETY,False,-1
1,69,0.6900000000000001,50.0,50.0,1.0,0.0,0.0,0.3333333333333333,1.05,False,SAFETY,False,-1
1,70,0.7000000000000001,50.0,50.0,1.0,0.0,0.0,0.3333333333333333,1.05,False,SAFETY,False,-1
1,71,0.71,50.0,50.0,1.0,0.0,0.0,0.3333333333333333,1.05,False,SAFETY,False,-1
1,72,0.72,50.0,50.0,1.0,0.0,0.0,0.3333333333333333,1.05,False,SAFETY,False,-1
1,73,0.73,50.0,50.0,1.0,0.0,0.0,0.3333333333333333,1.05,False,SAFETY,False,-1
1,74,0.74,50.0,50.0,1.0,0.0,0.0,0.3333333333333333,1.05,False,SAFETY,False,-1
1,75,0.75,50.0,50.0,1.0,0.0,0.0,0.3333333333333333,1.05,False,SAFETY,False,-1
1,76,0.76,50.0,50.0,1.0,0.0,0.0,0.3333333333333333,1.05,False,SAFETY,False,-1
1,77,0.77,50.0,50.0,1.0,0.0,0.0,0.3333333333333333,1.05,False,SAFETY,False,-1
1,78,0.78,50.0,50.0,1.0,0.0,0.0,0.3333333333333333,1.05,False,SAFETY,False,-1
1,79,0.79,50.0,50.0,1.0,0.0,0.0,0.3333333333333333,1.05,False,SAFETY,False,-1
1,80,0.8,50.0,50.0,1.0,0.0,0.0,0.3333333333333333,1.05,False,SAFETY,False,-1
1,81,0.81,50.0,50.0,1.0,0.0,0.0,0.3333333333333333,1.05,False,SAFETY,False,-1
1,82,0.8200000000000001,50.0,50.0,1.0,0.0,0.0,0.3333333333333333,1.05,False,SAFETY,False,-1
1,83,0.8300000000000001,50.0,50.0,1.0,0.0,0.0,0.3333333333333333,1.05,False,SAFETY,False,-1
1,84,0.84,50.0,50.0,1.0,0.0,0.0,0.3333333333333333,1.05,False,SAFETY,False,-1
1,85,0.85,50.0,50.0,1.0,0.0,0.0,0.3333333333333333,1.05,False,SAFETY,False,-1
1,86,0.86,50.0,50.0,1.0,0.0,0.0,0.3333333333333333,1.05,False,SAFETY,False,-1
1,87,0.87,50.0,50.0,1.0,0.0,0.0,0.3333333333333333,1.05,False,SAFETY,False,-1
1,88,0.88,50.0,50.0,1.0,0.0,0.0,0.3333333333333333,1.05,False,SAFETY,False,-1
1,89,0.89,50.0,50.0,1.0,0.0,0.0,0.3333333333333333,1.05,False,SAFETY,False,-1
1,90,0.9,50.0,50.0,1.0,0.0,0.0,0.3333333333333333,1.05,False,SAFETY,False,-1
1,91,0.91,50.0,50.0,1.0,0.0,0.0,0.3333333333333333,1.05,False,SAFETY,False,-1
1,92,0.92,50.0,50.0,1.0,0.0,0.0,0.3333333333333333,1.05,False,SAFETY,False,-1
1,93,0.93,50.0,50.0,1.0,0.0,0.0,0.3333333333333333,1.05,False,SAFETY,False,-1
1,94,0.9400000000000001,50.0,50.0,1.0,0.0,0.0,0.3333333333333333,1.05,False,SAFETY,False,-1
1,95,0.9500000000000001,50.0,50.0,1.0,0.0,0.0,0.3333333333333333,1.05,False,SAFETY,False,-1
1,96,0.96,50.0,50.0,1.0,0.0,0.0,0.3333333333333333,1.05,False,SAFETY,False,-1
1,97,0.97,50.0,50.0,1.0,0.0,0.0,0.3333333333333333,1.05,False,SAFETY,False,-1
1,98,0.98,50.0,50.0,1.0,0.0,0.0,0.3333333333333333,1.05,False,SAFETY,False,-1
1,99,0.99,50.0,50.0,1.0,0.0,0.0,0.3333333333333333,1.05,False,SAFETY,False,-1
2,0,0.0,-0.014656123467601645,-0.15643023445886559,0.4030653314207294,0.0,0.0,0.3333333333333333,1.05,False,SAFETY,False,-1
2,1,0.01,-6.688291139750445,-0.3197903114510291,0.5056075726438689,0.0,0.0,0.3333333333333333,1.05,False,SAFETY,False,-1
2,2,0.02,1.5468741306731209,0.22496584776074585,0.5077157308986474,0.0,0.0,0.3333333333333333,1.05,False,SAFETY,False,-1
2,3,0.03,2.6792821014438255,-0.9646209024822572,0.5093145597931987,0.0,0.0,0.3333333333333333,1.05,False,SAFETY,False,-1
2,4,0.04,-3.538791265642917,0.5233955447470274,0.5104741697298378,0.0,0.0,0.3333333333333333,1.05,False,SAFETY,False,-1
2,5,0.05,2.879967853595807,-1.6821152109647666,0.5112494032954124,0.0,0.0,0.3333333333333333,1.05,False,SAFETY,False,-1
2,6,0.06,-10.077493082960167,-0.5409758915224526,0.5117811765594591,0.0,0.0,0.3333333333333333,1.05,False,SAFETY,False,-1
2,7,0.07,7.676884458440708,-3.5359075856549773,0.5121067647086888,0.0,0.0,0.3333333333333333,1.05,False,SAFETY,False,-1
2,8,0.08,8.989118504341247,-2.2469476557034893,0.5123123372599712,0.0,0.0,0.3333333333333333,1.05,False,SAFETY,False,-1
2,9,0.09,-13.297424867781379,5.651097073904643,0.5124377200133731,0.0,0.0,0.3333333333333333,1.05,False,SAFETY,False,-1
2,10,0.1,22.993560988375037,-0.9515685563316915,0.2997080265170565,0.0,0.0,0.3333333333333333,1.05,False,SAFETY,False,-1
2,11,0.11,7.149062713760968,-3.6024715371130394,0.5056335139634857,0.0,0.0,0.3333333333333333,1.05,False,SAFETY,False,-1
2,12,0.12,-1.7961274040722608,3.647534959093708,0.5077455243147913,0.0,0.0,0.3333333333333333,1.05,False,SAFETY,False,-1
2,13,0.13,-4.834136996653191,-4.318632959103755,0.5093792426580777,0.0,0.0,0.3333333333333333,1.05,False,SAFETY,False,-1
2,14,0.14,-7.7731846345774525,2.3455595772995963,0.510553694692624,0.0,0.0,0.3333333333333333,1.05,False,SAFETY,False,-1
2,15,0.15,-0.9940068688329946,-2.424699780256954,0.5113543605353367,0.0,0.0,0.3333333333333333,1.05,False,SAFETY,False,-1
2,16,0.16,9.953437855077421,-0.04252642640172721,0.5118780980898358,0.0,0.0,0.3333333333333333,1.05,False,SAFETY,False,-1
2,17,0.17,-7.064899741125864,-1.1755639535196631,0.5122470475399046,0.0,0.0,0.3333333333333333,1.05,False,SAFETY,False,-1
2,18,0.18,4.0999100747959325,-1.7723547820448156,0.512474868302162,0.0,0.0,0.3333333333333333,1.05,False,SAFETY,False,-1
2,19,0.19,7.907507743617482,-0.4810618920941299,0.5126053887224182,0.0,0.0,0.3333333333333333,1.05,False,SAFETY,False,-1
2,20,0.2,77.10767116921183,3.4166254143201864,0.2997238335776896,0.0,0.0,0.3333333333333333,1.05,False,SAFETY,False,-1
2,21,0.21,1.0114427159874548,-4.262722237758906,0.4997238335776897,0.0,0.0,0.3333333333333333,1.05,False,SAFETY,False,-1
2,22,0.22,0.7991574427779518,1.2670268244908724,0.4997238335776897,0.0,0.0,0.3333333333333333,1.05,False,SAFETY,False,-1
2,23,0.23,1.4085103399745753,-1.6889020434536826,0.509187758022976,0.0,0.0,0.3333333333333333,1.05,False,SAFETY,False,-1
2,24,0.24,6.968021660120794,3.4084494519637043,0.5102877434168989,0.0,0.0,0.3333333333333333,1.05,False,SAFETY,False,-1
2,25,0.25,-1.9055060057709512,13.958296989207888,0.9566327905000971,0.0,0.0,0.3333333333333333,1.05,False,SAFETY,True,-1
2,26,0.26,-4.972492675796449,46.81027132107021,0.7418491204403947,0.0,0.0,0.3333333333333333,1.05,False,SAFETY,False,-1
2,27,0.27,18.606501299535758,-9.918232138689383,0.3722678059970249,0.0,0.0,0.3333333333333333,1.05,False,SAFETY,False,-1
2,28,0.28,-44.45409284436233,-57.05395562764305,0.34354584626592877,0.0,0.0,0.3333333333333333,1.05,False,SAFETY,False,-1
2,29,0.29,3.7241280354950037,-25.22285476656932,0.08870730324048154,0.0,0.0,0.3333333333333333,0.0,True,ADVANCED,True,29
2,30,0.3,74.7257276188167,1.0092903842202865,-0.1276938458335412,-7.634551494522109e-07,0.0001008914190662773,0.3333333333333333,1.4772818761811496e-08,True,ADVANCED,False,29
2,31,0.31,4.02538795075209,-33.18637300049292,0.6182687607955143,-1.6100842466300404e-05,9.685425752627364e-05,0.3333333333333333,1.05,False,SAFETY,False,29
2,32,0.32,11.628692524104213,-21.693877006016805,1.0632128838837445,-1.649309214153317e-05,9.685387010924353e-05,0.3333333333333333,1.05,False,SAFETY,False,29
2,33,0.33,-29.00023570381644,27.16590913863088,0.13347751503918914,-1.6885341738316002e-05,9.685348269376308e-05,0.3333333333333333,1.4741598035122133e-08,True,ADVANCED,False,29
2,34,0.34,-53.79617686746332,-43.38866566432354,0.5692491898939904,-1.133254126019858e-05,-1.1810153846303464e-05,0.3333333333333333,1.05,False,SAFETY,False,29
2,35,0.35000000000000003,17.762299600078673,-1.6242936606417957,0.40939950135370917,-1.1579785661540265e-05,-1.1810106605688082e-05,0.3333333333333333,1.05,False,SAFETY,False,29
2,36,0.36,-21.31995428617538,-13.259451282785108,0.8286814250193142,-1.1827030013433068e-05,-1.1810059365261661e-05,0.3333333333333333,1.05,False,SAFETY,False,29
2,37,0.37,-41.08381794000914,7.347942411539883,0.39640753186465155,-1.2074274315877e-05,-1.1810012125024203e-05,0.3333333333333333,1.05,False,SAFETY,False,29
2,38,0.38,23.210804534339243,28.19857896368413,0.7791146457653553,-1.232151856887207e-05,-1.1809964884975704e-05,0.3333333333333333,1.05,False,SAFETY,False,29
2,39,0.39,-5.438502457545951,9.556059387788629,0.805050372171132,-1.2568762772418288e-05,-1.1809917645116166e-05,0.3333333333333333,1.05,False,SAFETY,False,29
2,40,0.4,-89.27793243562985,-28.790109344777985,-0.05912706222553482,-1.2816006926515665e-05,-1.1809870405445588e-05,0.3333333333333333,7.139223278299562e-09,True,ADVANCED,False,29
2,41,0.41000000000000003,50.859253755118104,-7.531503678224848,0.8066426610807405,5.238720260840289e-06,0.00010335056703709964,0.3333333333333333,1.05,False,SAFETY,False,29
2,42,0.42,-20.46901190281339,12.533623124764057,0.9690074806422739,5.437859918667879e-06,0.00010335015363483149,0.3333333333333333,1.05,False,SAFETY,False,29
2,43,0.43,47.5220975418276,-76.835314413178,0.755738063471913,5.63699953666753e-06,0.00010334974023421693,0.3333333333333333,1.05,False,SAFETY,False,29
2,44,0.44,-17.69234347926045,2.2481078091057074,-0.0859286037349295,5.836139114839251e-06,0.00010334932683525598,0.3333333333333333,1.5603809105492425e-08,True,ADVANCED,False,29
2,45,0.45,23.839499648414147,40.10795815136439,0.35567683598637245,9.662222193657958e-06,9.435689562982499e-05,0.3333333333333333,1.05,False,SAFETY,False,29
2,46,0.46,-19.157448258819983,28.351324212976536,0.6103849611246394,9.949812435564057e-06,9.435651820224246e-05,0.3333333333333333,1.05,False,SAFETY,False,29
2,47,0.47000000000000003,14.223167748329438,4.123960462895359,0.8027735301458969,1.023742482441259e-05,9.435614077616963e-05,0.3333333333333333,1.05,False,SAFETY,False,29
2,48,0.48,-20.773823538943596,-12.972927738234832,0.07342803551577526,1.0525014951278144e-05,9.435576335160651e-05,0.3333333333333333,1.5112099142191674e-08,True,ADVANCED,False,29
2,49,0.49,2.1358170133653154,-0.9939518511888074,0.4423037842220218,1.5071255411333947e-05,0.00014624747434374103,0.3333333333333333,1.05,False,SAFETY,False,29
2,50,0.5,68.08511327354222,-7.881297585956148,0.0590536312980775,1.546272814230162e-05,0.00014624688935384363,0.3333333333333333,2.302557637480536e-08,True,ADVANCED,False,29
2,51,0.51,18.947207141876024,55.587110126414046,0.5578816304048296,1.8967535428932674e-06,0.0001777720795756834,0.3333333333333333,1.05,False,SAFETY,False,29
2,52,0.52,1.2921210328639154,-63.63807178080335,0.4995501041038481,1.9478012233066904e-06,0.00017777136848736507,0.3333333333333333,1.05,False,SAFETY,False,29
2,53,0.53,78.78958460174155,-4.871130335614769,0.599532536303106,1.998848893510555e-06,0.00017777065740189114,0.3333333333333333,1.05,False,SAFETY,False,29
2,54,0.54,-35.26948921022617,36.26242348010185,0.7358399399455824,2.049896553504863e-06,0.00017776994631926154,0.3333333333333333,1.05,False,SAFETY,False,29
2,55,0.55,-23.03056198806087,38.97108871817425,0.09057956224420816,2.1009442032896167e-06,0.00017776923523947624,0.3333333333333333,2.6890203166694654e-08,True,ADVANCED,False,29
2,56,0.56,62.51407171982478,-33.542626551325554,0.3418747735934158,6.873257003844419e-06,2.188488042167566e-05,0.3333333333333333,1.05,False,SAFETY,False,29
2,57,0.5700000000000001,-4.973829523467446,-43.94576095492476,0.5327681635895867,7.039456016664639e-06,2.1884792882153958e-05,0.3333333333333333,1.05,False,SAFETY,False,29
2,58,0.58,20.996177725392695,-29.123388005242223,0.9774904295098134,7.205654996245052e-06,2.1884705342982415e-05,0.3333333333333333,1.05,False,SAFETY,False,29
2,59,0.59,-10.39154673156779,26.06043130249399,0.1434719141022151,7.37184284035542e-06,2.1884617804161025e-05,0.3333333333333333,9.994480357053204e-09,True,ADVANCED,False,29
2,60,0.6,32.27590087069222,-51.831941699846745,0.3585655170152867,9.668311034872974e-06,-8.235710738024352e-05,0.3333333333333333,1.05,False,SAFETY,False,29
2,61,0.61,29.94412797120467,-35.35668044129751,0.1092944574264399,9.886467922330663e-06,-8.235677795181402e-05,0.3333333333333333,1.6722481111967714e-08,True,ADVANCED,False,29
2,62,0.62,16.496254801300267,9.11752409313104,0.6113145824996371,3.966076478948946e-06,5.906994371088325e-05,0.3333333333333333,1.05,False,SAFETY,False,29
2,63,0.63,0.833685573365659,7.731386742792966,0.2946715548791452,4.034520937830795e-06,5.90697074311084e-05,0.3333333333333333,1.05,False,SAFETY,False,29
2,64,0.64,13.678588152161433,-36.309041163881744,0.7071581760001991,4.102954280793494e-06,5.9069471152278684e-05,0.3333333333333333,1.05,False,SAFETY,False,29
2,65,0.65,32.33436776674304,33.07966477046879,0.26487472551627644,4.171387610069513e-06,5.906923487439407e-05,0.3333333333333333,1.05,False,SAFETY,False,29
2,66,0.66,16.200690848377075,26.269536356646686,1.080778516005772,4.239820925658853e-06,5.9068998597454575e-05,0.3333333333333333,1.05,False,SAFETY,False,29
2,67,0.67,-22.72312785544245,-24.315635935948603,0.26748074942812244,4.3082542275615185e-06,5.9068762321460186e-05,0.3333333333333333,1.05,False,SAFETY,False,29
2,68,0.68,5.225402332926785,-0.22965682103622598,0.7607441880354633,4.376687515777511e-06,5.9068526046410903e-05,0.3333333333333333,1.05,False,SAFETY,False,29
2,69,0.6900000000000001,53.70816011965628,-8.692948111792328,1.3288808921036845,4.445131892537081e-06,5.906828977230671e-05,0.3333333333333333,1.05,False,SAFETY,False,29
2,70,0.7000000000000001,-100.2152599513825,-29.936199233820957,0.44448071128001915,4.513565153377515e-06,5.906805349914762e-05,0.3333333333333333,1.05,False,SAFETY,False,29
2,71,0.71,25.941825301564826,14.059275434300597,0.483525482818378,4.582009502761533e-06,5.906781722693362e-05,0.3333333333333333,1.05,False,SAFETY,False,29
2,72,0.72,-51.11467330177258,-14.844911874468739,0.7642597672274689,4.650442736226421e-06,5.906758095566471e-05,0.3333333333333333,1.05,False,SAFETY,False,29
2,73,0.73,-35.28144859569269,4.27347711457871,0.6245220620918358,4.71887595600465e-06,5.9067344685340886e-05,0.3333333333333333,1.05,False,SAFETY,False,29
2,74,0.74,0.7589648474114483,2.6786288950867774,0.16729466235883167,4.787309162096223e-06,5.906710841596215e-05,0.3333333333333333,1.05,False,SAFETY,False,29
2,75,0.75,12.703575087506547,31.827433735503796,0.8272774953514088,4.855742354501142e-06,5.906687214752848e-05,0.3333333333333333,1.05,False,SAFETY,False,29
2,76,0.76,-35.25490019363834,12.39570422207721,0.6660010148704398,4.92417553321941e-06,5.9066635880039894e-05,0.3333333333333333,1.05,False,SAFETY,False,29
2,77,0.77,123.08807565913128,17.644598762755,0.8530508251073519,4.992608698251029e-06,5.906639961349637e-05,0.3333333333333333,1.05,False,SAFETY,False,29
2,78,0.78,12.893777055336365,-9.627403651138412,0.7404701650880905,5.061041849596003e-06,5.906616334789792e-05,0.3333333333333333,1.05,False,SAFETY,False,29
2,79,0.79,-7.579487726317548,-16.405165197892078,0.5376297814182723,5.1294860894845795e-06,5.906592708324452e-05,0.3333333333333333,1.05,False,SAFETY,False,29
2,80,0.8,31.916919256390464,19.168657349333277,-0.1840754989519532,5.19791921345405e-06,5.906569081953619e-05,0.3333333333333333,1.5870278770387462e-08,True,ADVANCED,False,29
2,81,0.81,32.89749279210875,6.209329034433352,0.1819228025858008,-1.2766139769167616e-06,-1.7608938772594337e-05,0.3333333333333333,1.05,False,SAFETY,False,29
2,82,0.8200000000000001,32.892727578417414,-21.144340390296712,0.5720322225790367,-1.3677519302784843e-06,-1.7608868336839205e-05,0.3333333333333333,1.05,False,SAFETY,False,29
2,83,0.8300000000000001,-0.6358396928332013,60.686056518916544,0.698782505420232,-1.4589009676428598e-06,-1.760879790136582e-05,0.3333333333333333,1.05,False,SAFETY,False,29
2,84,0.84,8.064043580626908,-21.877518870428677,0.7655909750459785,-1.5500499867774262e-06,-1.7608727466174178e-05,0.3333333333333333,1.05,False,SAFETY,False,29
2,85,0.85,-0.9369333729437006,17.195441591150495,0.7705570407800995,-1.6411989876821862e-06,-1.7608657031264273e-05,0.3333333333333333,1.05,False,SAFETY,False,29
2,86,0.86,-0.44942840518721994,-15.125373159265644,0.31557960887098074,-1.7323479703571443e-06,-1.760858659663611e-05,0.3333333333333333,1.05,False,SAFETY,False,29
2,87,0.87,28.65734813467894,-39.515374966593534,0.7874940979559146,-1.823496934802303e-06,-1.7608516162289686e-05,0.3333333333333333,1.05,False,SAFETY,False,29
2,88,0.88,31.64162757652783,-44.44068849725677,0.36730725459590796,-1.9146458810176663e-06,-1.7608445728224998e-05,0.3333333333333333,1.05,False,SAFETY,False,29
2,89,0.89,-13.723995089780914,9.142628497542804,0.7452979545189561,-2.0057948090032387e-06,-1.7608375294442046e-05,0.3333333333333333,1.05,False,SAFETY,False,29
2,90,0.9,-81.96640844680424,-91.50481577803932,-0.007577900093639622,-2.0969437187590226e-06,-1.7608304860940828e-05,0.3333333333333333,1.0476432436717179e-08,True,ADVANCED,False,29
2,91,0.91,-58.2341465358908,42.204274900926016,0.07649900465072185,1.4615016370728368e-05,0.0003484109589169325,0.3333333333333333,5.138394528244666e-08,True,ADVANCED,False,29
2,92,0.92,-40.52312970246002,45.7175733761905,0.0689797469528155,2.6871713444112596e-05,0.00017959385979233634,0.3333333333333333,2.947202821942475e-08,True,ADVANCED,False,29
2,93,0.93,-26.08364336476415,-30.71815317870932,0.6478311184948953,3.5788800655837586e-05,-3.2764333826655153e-06,0.3333333333333333,1.05,False,SAFETY,False,29
2,94,0.9400000000000001,-56.19339980822494,2.726939303578785,0.38414431324811926,3.660126580954807e-05,-3.2764202769322406e-06,0.3333333333333333,1.05,False,SAFETY,False,29
2,95,0.9500000000000001,-14.396098053704637,46.32759045118309,0.14028922374041553,3.741373080076551e-05,-3.276407171251389e-06,0.3333333333333333,1.05,False,SAFETY,False,29
2,96,0.96,-91.10813399347859,-5.233252618198916,0.6889547720354702,3.822618452725972e-05,-3.27639406562296e-06,0.3333333333333333,1.05,False,SAFETY,False,29
2,97,0.97,-59.51993012709558,-7.303181354001456,0.3652036846450362,3.903866029572367e-05,-3.276380960046954e-06,0.3333333333333333,1.05,False,SAFETY,False,29
2,98,0.98,9.428569389699536,12.123061262873081,0.30570079737103995,3.9851113697231976e-05,-3.2763678545233695e-06,0.3333333333333333,1.05,False,SAFETY,False,29
2,99,0.99,-20.178116222149196,21.369856576279624,0.702834824798582,4.066357803847984e-05,-3.276354749052208e-06,0.3333333333333333,1.05,False,SAFETY,False,29
3,0,0.0,-0.537298510306923,0.14318651973342406,0.3971256688525212,0.0,0.0,0.3333333333333333,1.05,False,SAFETY,False,-1
3,1,0.01,-2.832394377072695,-8.796511264756115,0.5032728357715339,0.0,0.0,0.3333333333333333,1.05,False,SAFETY,False,-1
3,2,0.02,-2.868131312544781,9.839533252541901,0.5086923742890741,0.0,0.0,0.3333333333333333,1.05,False,SAFETY,False,-1
3,3,0.03,-2.862414898860043,-2.3646307533883064,0.5128439478083672,0.0,0.0,0.3333333333333333,1.05,False,SAFETY,False,-1
3,4,0.04,4.489163548719659,-1.8275525901768883,0.5157774563209174,0.0,0.0,0.3333333333333333,1.05,False,SAFETY,False,-1
3,5,0.05,9.636238334686444,-3.6394870688820067,0.5177919319674068,0.0,0.0,0.3333333333333333,1.05,False,SAFETY,False,-1
3,6,0.06,-8.319916941885047,2.8965018745201685,0.5191467305166031,0.0,0.0,0.3333333333333333,1.05,False,SAFETY,False,-1
3,7,0.07,-7.023269342621817,3.217314265356768,0.5200416359557235,0.0,0.0,0.3333333333333333,1.05,False,SAFETY,False,-1
3,8,0.08,1.946304596415881,-0.9121779747648163,0.5206060732329627,0.0,0.0,0.3333333333333333,1.05,False,SAFETY,False,-1
3,9,0.09,1.1125794946390206,-0.9353586916390226,0.5209441031375647,0.0,0.0,0.3333333333333333,1.05,False,SAFETY,False,-1
3,10,0.1,80.4112488492807,2.3590014305637,0.29970525845492835,0.0,0.0,0.3333333333333333,1.05,False,SAFETY,False,-1
3,11,0.11,-7.1806775394293645,-2.3283383810505613,0.4997052584549284,0.0,0.0,0.3333333333333333,1.05,False,SAFETY,False,-1
3,12,0.12,12.96367273218163,2.1147158173991887,0.4997052584549284,0.0,0.0,0.3333333333333333,1.05,False,SAFETY,False,-1
3,13,0.13,-5.3485892238249155,-1.521423599904126,0.5130436094600945,0.0,0.0,0.3333333333333333,1.05,False,SAFETY,False,-1
3,14,0.14,8.377389054750704,0.045445998201124355,0.5159295034102676,0.0,0.0,0.3333333333333333,1.05,False,SAFETY,False,-1
3,15,0.15,-0.41492307521190797,3.8750667124905003,0.4997052584549284,0.0,0.0,0.3333333333333333,1.05,False,SAFETY,False,-1
3,16,0.16,4.462705137686973,-6.337529443999368,0.4997052584549284,0.0,0.0,0.3333333333333333,1.05,False,SAFETY,False,-1
3,17,0.17,1.0032325520657157,3.417925907872158,0.5201173230890322,0.0,0.0,0.3333333333333333,1.05,False,SAFETY,False,-1
3,18,0.18,4.27702386322778,2.830228224682949,0.4997052584549284,0.0,0.0,0.3333333333333333,1.05,False,SAFETY,False,-1
3,19,0.19,-11.51941118594253,-4.61227579446579,0.5210093212219216,0.0,0.0,0.3333333333333333,1.05,False,SAFETY,False,-1
3,20,0.2,82.95023005190059,2.3192917877038077,0.2997220882323536,0.0,0.0,0.3333333333333333,1.05,False,SAFETY,False,-1
3,21,0.21,14.184318254773222,-0.8900195641844684,0.49972208823235365,0.0,0.0,0.3333333333333333,1.05,False,SAFETY,False,-1
3,22,0.22,-0.6681944036901654,-3.2634658756733272,0.5087524452162812,0.0,0.0,0.3333333333333333,1.05,False,SAFETY,False,-1
3,23,0.23,7.449911879553959,3.091007248780709,0.49972208823235365,0.0,0.0,0.3333333333333333,1.05,False,SAFETY,False,-1
3,24,0.24,4.335324953387866,-0.3907004086426345,0.49972208823235365,0.0,0.0,0.3333333333333333,1.05,False,SAFETY,False,-1
3,25,0.25,-3.7181430807530775,-0.9461486117248659,-0.19988883529294144,0.0,0.0,0.3333333333333333,0.0,True,ADVANCED,False,-1
3,26,0.26,-2.7074408825442156,1.2298657302228821,-0.20761108680069246,7.622137495828406e-07,3.784594446899464e-06,0.3333333333333333,1.1045523518557621e-09,True,ADVANCED,False,-1
3,27,0.27,-8.857820657595964,-0.6223874775819092,-0.19988883529294144,1.3358317804002488e-06,-1.1348684739839643e-06,0.3333333333333333,1.825544168383769e-09,True,ADVANCED,False,-1
3,28,0.28,-2.216835620250615,-2.122015683457233,-0.20819931571936753,3.183812562703829e-06,1.3546814361329038e-06,0.3333333333333333,2.7772633918628e-09,True,ADVANCED,False,-1
3,29,0.29,5.606606882617189,0.76846482526321,-0.19988883529294144,3.714676363307791e-06,9.84274417011488e-06,0.3333333333333333,3.941430586647223e-09,True,ADVANCED,False,-1
3,30,0.3,31.87630942476928,0.8753426381750649,-0.11989197041429099,2.6528296340449846e-06,6.768884870331362e-06,0.3333333333333333,4.683497809957904e-09,True,ADVANCED,False,-1
3,31,0.31,-7.0720173078924224,0.4892436637035175,-0.19989197041429102,-3.822341220933498e-06,3.267514322966676e-06,0.3333333333333333,3.640024070756265e-09,True,ADVANCED,False,-1
3,32,0.32,-3.6693129138954697,-0.5044456150574277,-0.2033816745670472,-2.4724972283657536e-06,1.3105396669378862e-06,0.3333333333333333,4.593642147781145e-09,True,ADVANCED,False,-1
3,33,0.33,-0.16414902760422387,-1.0046784422196,-0.2049938428554965,-1.7848421279616071e-06,3.328322126318928e-06,0.3333333333333333,5.4874177237476884e-09,True,ADVANCED,False,-1
3,34,0.34,1.5487029839689914,1.6398774461295507,-0.19989197041429102,-1.7973982398154056e-06,7.34703589528926e-06,0.3333333333333333,6.4247967753911206e-09,True,ADVANCED,False,-1
3,35,0.35000000000000003,-0.10378597491794601,-1.0921426374504117,-0.20696144803473288,-2.1602630086563264e-06,7.875261115493853e-07,0.3333333333333333,7.346174764925669e-09,True,ADVANCED,False,-1
3,36,0.36,1.1176819579263266,-0.252220841580076,-0.2075131407679988,-2.1921192829111605e-06,5.156096661204717e-06,0.3333333333333333,8.264778607911148e-09,True,ADVANCED,False,-1
3,37,0.37,-4.580664782788732,1.2809484966274924,-0.19989197041429102,-2.473853565712339e-06,6.1649800280697636e-06,0.3333333333333333,9.186567591831683e-09,True,ADVANCED,False,-1
3,38,0.38,-4.121515845253553,-0.2840489147903399,-0.20812678743226334,-1.593014599506572e-06,1.0411860374381307e-06,0.3333333333333333,1.0097321479536476e-08,True,ADVANCED,False,-1
3,39,0.39,1.990257873748985,-0.3030707660611236,-0.19989197041429102,-7.83410783459495e-07,2.1773816922575173e-06,0.3333333333333333,1.0895651874538236e-08,True,ADVANCED,False,-1
3,40,0.4,25.99768875756973,-1.2257525310746304,-0.11989411918360485,-1.206087105131437e-06,3.3896647581738164e-06,0.3333333333333333,1.1875882104964642e-08,True,ADVANCED,False,-1
3,41,0.41000000000000003,5.359003127103802,1.1362089530366382,-0.20122343928093855,-6.560256719404619e-06,8.292674916114418e-06,0.3333333333333333,1.1093956818314822e-08,True,ADVANCED,False,-1
3,42,0.42,0.7838346528243795,0.3031843084957741,-0.20323921707272793,-7.813489992049091e-06,3.7478391108699487e-06,0.3333333333333333,1.1763873215581826e-08,True,ADVANCED,False,-1
3,43,0.43,6.087504540226332,-0.9245187149138273,-0.20482545053505274,-8.155597554631094e-06,2.5351018773541246e-06,0.3333333333333333,1.2258455459472292e-08,True,ADVANCED,False,-1
3,44,0.44,-0.8024151321586338,-0.29668644522948767,-0.20598128877406308,-9.58887030769969e-06,6.233176746302091e-06,0.3333333333333333,1.298527396700274e-08,True,ADVANCED,False,-1
3,45,0.45,8.70476613715619,1.1885831453469318,-0.20680049972801193,-9.64016232363128e-06,7.419922523850702e-06,0.3333333333333333,1.3668448129710487e-08,True,ADVANCED,False,-1
3,46,0.46,-2.082972693127424,-1.9134903301802098,-0.20736621608105998,-1.1636400233967696e-05,2.6655899591739937e-06,0.3333333333333333,1.4214976335700532e-08,True,ADVANCED,False,-1
3,47,0.47000000000000003,-0.5837170933201873,2.515296861829495,-0.2077513177906818,-1.146467648574289e-05,1.0319551272551163e-05,0.3333333333333333,1.490150014448961e-08,True,ADVANCED,False,-1
3,48,0.48,5.837874626968636,-1.9388249754975897,-0.20800556473950824,-1.1589895074080596e-05,2.5836382108948864e-07,0.3333333333333333,1.5395574904295634e-08,True,ADVANCED,False,-1
3,49,0.49,1.11461319862644,-0.3212257446430404,-0.20816887144637228,-1.3028619768772949e-05,8.013663735178904e-06,0.3333333333333333,1.6187303065853743e-08,True,ADVANCED,False,-1
3,50,0.5,-30.901318726211958,0.4403261785321087,-0.11989492864063589,-1.3528265497959233e-05,9.298566713811996e-06,0.3333333333333333,1.6733788153006627e-08,True,ADVANCED,False,-1
3,51,0.51,0.005287204761466269,-0.9664616162760282,-0.201089601662526,-7.47021510352802e-06,7.537261906260461e-06,0.3333333333333333,1.5843532157434602e-08,True,ADVANCED,False,-1
3,52,0.52,-2.64237648754022,-0.021625753009498663,-0.20304822637180747,-7.593508099942849e-06,1.1403108367588727e-05,0.3333333333333333,1.641393668655948e-08,True,ADVANCED,False,-1
3,53,0.53,-2.883688178786283,0.6791538549831158,-0.20461744099689594,-7.174056704388291e-06,1.1489611364707616e-05,0.3333333333333333,1.710591301851544e-08,True,ADVANCED,False,-1
3,54,0.54,-1.5461291712973915,0.33883494048565405,-0.20578825206391915,-6.69193227587414e-06,8.772995928797561e-06,0.3333333333333333,1.7674105767933563e-08,True,ADVANCED,False,-1
3,55,0.55,-2.813087677730625,-0.4589807867676077,-0.2066236625867766,-6.469592496314493e-06,7.417656157259126e-06,0.3333333333333333,1.8053430025181887e-08,True,ADVANCED,False,-1
3,56,0.56,3.6048631572020464,-1.3799424934425113,-0.20721492007568837,-5.979783387471998e-06,9.25357928590367e-06,0.3333333333333333,1.8794161431662758e-08,True,ADVANCED,False,-1
3,57,0.5700000000000001,-8.296350503061689,2.5665061399786597,-0.20762394083871955,-6.7915944673091525e-06,1.47733492725547e-05,0.3333333333333333,1.9318930492494605e-08,True,ADVANCED,False,-1
3,58,0.58,-3.5817431121454826,-2.5030057985911007,-0.20790265658807439,-5.181684884327291e-06,4.5073246665686746e-06,0.3333333333333333,1.9806323728559934e-08,True,ADVANCED,False,-1
3,59,0.59,2.6908685486705353,0.2783293465129623,-0.20808441691406207,-4.496777777958757e-06,1.4519347837467015e-05,0.3333333333333333,2.0443617585943066e-08,True,ADVANCED,False,-1
3,60,0.6,6.654383565526034,-0.4391440604601684,-0.11989540724785566,-5.079848908270698e-06,1.340603046096638e-05,0.3333333333333333,2.0999983621225313e-08,True,ADVANCED,False,-1
3,61,0.61,-2.474835290553914,1.3493015419438148,-0.20100233171619442,-6.488907528404613e-06,1.5162606731106552e-05,0.3333333333333333,2.2122619490873556e-08,True,ADVANCED,False,-1
3,62,0.62,0.03268691334391884,-0.597748986845012,-0.20290359277407377,-6.059732288589007e-06,9.765400544353313e-06,0.3333333333333333,2.2477424653590745e-08,True,ADVANCED,False,-1
3,63,0.63,-4.385693310687599,0.30340144025369153,-0.20445384382153994,-6.132239124449012e-06,1.2156396485891602e-05,0.3333333333333333,2.3131531661592406e-08,True,ADVANCED,False,-1
3,64,0.64,1.9952378101494899,-0.1780213197494174,-0.20562756412169647,-5.2991319088883765e-06,1.0942790691153918e-05,0.3333333333333333,2.3555589087872595e-08,True,ADVANCED,False,-1
3,65,0.65,2.5351599677152055,-1.167565543151299,-0.2064804995424944,-5.752191822396888e-06,1.1654875978415586e-05,0.3333333333333333,2.4147181488396682e-08,True,ADVANCED,False,-1
3,66,0.66,-7.213342019136714,0.751968320966233,-0.20709238213663517,-6.325914914095088e-06,1.6325138163836217e-05,0.3333333333333333,2.478771981264511e-08,True,ADVANCED,False,-1
3,67,0.67,2.924470917360485,1.7335666367664098,-0.20752234179841383,-4.913866463452077e-06,1.3317264818880596e-05,0.3333333333333333,2.5274988148103822e-08,True,ADVANCED,False,-1
3,68,0.68,-6.264339621027396,-1.3860375585951603,-0.20782074250352822,-5.5440022376724215e-06,6.382998288841725e-06,0.3333333333333333,2.5858751148651874e-08,True,ADVANCED,False,-1
3,69,0.6900000000000001,-2.006544772635248,-0.9219138530994213,-0.20802477966093302,-4.305045408690969e-06,1.1927148463087542e-05,0.3333333333333333,2.6596544677503846e-08,True,ADVANCED,False,-1
3,70,0.7000000000000001,32.04832913049567,-0.7919449615068727,-0.11989576076077513,-3.907633338219294e-06,1.5614803852313188e-05,0.3333333333333333,2.715973646283907e-08,True,ADVANCED,False,-1
3,71,0.71,1.5907706945014135,1.0681588796849815,-0.20091334556885798,-1.0481423434200406e-05,1.8782584000454204e-05,0.3333333333333333,2.647386014182748e-08,True,ADVANCED,False,-1
3,72,0.72,-0.29666284837037166,-1.209842807365544,-0.20274614987661688,-1.0971662144614292e-05,1.4509948492122747e-05,0.3333333333333333,2.6856088019636243e-08,True,ADVANCED,False,-1
3,73,0.73,-0.2192981301589214,1.7317253777916548,-0.2042644740029274,-1.1082926446516637e-05,1.934931971052702e-05,0.3333333333333333,2.7624863017108306e-08,True,ADVANCED,False,-1
3,74,0.74,-3.358726040710028,-0.5617197750653172,-0.20543750982388734,-1.1208575675260879e-05,1.2422418190836024e-05,0.3333333333333333,2.806808265765127e-08,True,ADVANCED,False,-1
3,75,0.75,1.9836543025188043,-1.3107459229185388,-0.20630184106047827,-1.0689541645596322e-05,1.4669297250023718e-05,0.3333333333333333,2.8501622617149765e-08,True,ADVANCED,False,-1
3,76,0.76,-1.7429489306244275,-0.6267221431708885,-0.20693641607300478,-1.1248897976432787e-05,1.9912280954699926e-05,0.3333333333333333,2.9268774317412736e-08,True,ADVANCED,False,-1
3,77,0.77,-1.9084452478110039,1.284322368770887,-0.2073882171866623,-1.1054218410360816e-05,2.241916950226672e-05,0.3333333333333333,2.968474266186449e-08,True,ADVANCED,False,-1
3,78,0.78,-1.387677573259655,-0.5750565791912362,-0.2077116080839454,-1.0816902767045004e-05,1.7281879994552897e-05,0.3333333333333333,3.033332638592852e-08,True,ADVANCED,False,-1
3,79,0.79,1.3879751850006126,1.5084639921216452,-0.20793615106793917,-1.0676801762876069e-05,1.9582106286728926e-05,0.3333333333333333,3.08892030928859e-08,True,ADVANCED,False,-1
3,80,0.8,30.880094934887964,-0.39949071212057213,-0.11989554693999689,-1.109877020579456e-05,1.3548250329007768e-05,0.3333333333333333,3.1303260631675326e-08,True,ADVANCED,False,-1
3,81,0.81,6.206304059730332,-0.7099709565033174,-0.2009091998116256,-1.7573561313300598e-05,1.5146213574874952e-05,0.3333333333333333,3.204063180191893e-08,True,ADVANCED,False,-1
3,82,0.8200000000000001,-0.2638161730394447,0.12141014109167428,-0.20268879829887532,-1.9144624979235775e-05,1.798609747555676e-05,0.3333333333333333,3.271599564121016e-08,True,ADVANCED,False,-1
3,83,0.8300000000000001,8.126305134577368,-0.800536839377509,-0.20417866841321414,-1.9420354536271218e-05,1.75004568979546e-05,0.3333333333333333,3.328001605999837e-08,True,ADVANCED,False,-1
3,84,0.84,1.0376444128804068,0.4704890952616708,-0.20534329051194736,-2.1414720312867907e-05,2.0702604359754e-05,0.3333333333333333,3.4128413681978395e-08,True,ADVANCED,False,-1
3,85,0.85,4.457288828985783,-0.3410024703696628,-0.2062177998221381,-2.1996560891946045e-05,1.8820647984588587e-05,0.3333333333333333,3.4628785719155284e-08,True,ADVANCED,False,-1
3,86,0.86,3.6214190663398926,0.2758046063537227,-0.2068643097053165,-2.328461253005735e-05,2.0184657920574207e-05,0.3333333333333333,3.539603557583241e-08,True,ADVANCED,False,-1
3,87,0.87,3.4822717301332524,0.05481067840459737,-0.20733684816099568,-2.4423597953601194e-05,1.9081439540640256e-05,0.3333333333333333,3.599023851924001e-08,True,ADVANCED,False,-1
3,88,0.88,0.9178757985241227,-0.9906816694606143,-0.2076797940771479,-2.555215110456345e-05,1.8862196870439804e-05,0.3333333333333333,3.66344895025049e-08,True,ADVANCED,False,-1
3,89,0.89,3.434135453315479,1.7555826395537437,-0.20792498557527975,-2.6172432493974535e-05,2.2824923548551234e-05,0.3333333333333333,3.7343319119632854e-08,True,ADVANCED,False,-1
3,90,0.9,-31.933392332994472,-1.4355318709980134,-0.11989576397681377,-2.7313129865093706e-05,1.5802593036186905e-05,0.3333333333333333,3.786429401832883e-08,True,ADVANCED,False,-1
3,91,0.91,-10.206469361242563,0.646269503729128,-0.20059363941965702,-2.122066049958138e-05,2.1544719955074337e-05,0.3333333333333333,3.741425662495789e-08,True,ADVANCED,False,-1
3,92,0.92,-4.345366437961968,-0.1683595702170028,-0.20228843440811162,-1.942252767896835e-05,1.8959641734531596e-05,0.3333333333333333,3.7975902646304215e-08,True,ADVANCED,False,-1
3,93,0.93,-10.115973421240511,0.7002299315990929,-0.20374288919680048,-1.877489947915782e-05,1.96330799211174e-05,0.3333333333333333,3.839209110680558e-08,True,ADVANCED,False,-1
3,94,0.9400000000000001,-10.971395489621898,-0.7738646273075654,-0.20490871721444504,-1.6922568123036047e-05,1.683215998075129e-05,0.3333333333333333,3.890489672140483e-08,True,ADVANCED,False,-1
3,95,0.9500000000000001,-10.288404062757472,-0.7733599779612566,-0.20580919619482577,-1.4844307333544707e-05,1.992761825835637e-05,0.3333333333333333,3.9286847220426237e-08,True,ADVANCED,False,-1
3,96,0.96,-10.248409503118076,0.7418717097918897,-0.2064883630197159,-1.2851185993032056e-05,2.3021057942819734e-05,0.3333333333333333,3.980888891231613e-08,True,ADVANCED,False,-1
3,97,0.97,-8.138796836349531,0.783472867288655,-0.20699304204900004,-1.081482677378793e-05,2.0053570872774047e-05,0.3333333333333333,4.0215914287727186e-08,True,ADVANCED,False,-1
3,98,0.98,-9.615756591195053,-1.9457943880433914,-0.20736713970128365,-9.159700413884294e-06,1.691967921206877e-05,0.3333333333333333,4.06636571795255e-08,True,ADVANCED,False,-1
3,99,0.99,-8.085840165556696,-0.8286903836474867,-0.20764123073362148,-7.1610983403853494e-06,2.47028565353056e-05,0.3333333333333333,4.1213061938566077e-08,True,ADVANCED,False,-1
4,0,0.0,0.14222381421120575,0.4767145054557962,0.3940802767365424,0.0,0.0,0.3333333333333333,1.05,False,SAFETY,False,-1
4,1,0.01,-12.457411548328821,0.2943651034346154,0.4944750627324136,0.0,0.0,0.3333333333333333,1.05,False,SAFETY,False,-1
4,2,0.02,1.4251065284790285,-3.0494088352790376,0.49443451127987614,0.0,0.0,0.3333333333333333,1.05,False,SAFETY,False,-1
4,3,0.03,0.3076154363253202,-0.642083639716374,0.4937707344410883,0.0,0.0,0.3333333333333333,1.05,False,SAFETY,False,-1
4,4,0.04,2.7622560302945653,4.060419185301023,0.4926528263373496,0.0,0.0,0.3333333333333333,1.05,False,SAFETY,False,-1
4,5,0.05,-6.211643588933793,-0.37931143900951936,0.4913181370623091,0.0,0.0,0.3333333333333333,1.05,False,SAFETY,False,-1
4,6,0.06,2.3525226717793535,-0.7190466332483922,0.489991558597593,0.0,0.0,0.3333333333333333,1.05,False,SAFETY,False,-1
4,7,0.07,3.316791732177657,2.252943005340406,0.4887703998422352,0.0,0.0,0.3333333333333333,1.05,False,SAFETY,False,-1
4,8,0.08,-5.339228644531063,2.936197068137404,0.4876890647061597,0.0,0.0,0.3333333333333333,1.05,False,SAFETY,False,-1
4,9,0.09,12.252077223284093,4.563558259966131,0.4867710155873478,0.0,0.0,0.3333333333333333,1.05,False,SAFETY,False,-1
4,10,0.1,75.46737429215173,-2.1015726397479058,0.2997053537462677,0.0,0.0,0.3333333333333333,1.05,False,SAFETY,False,-1
4,11,0.11,0.8380688709155913,0.8502857195843486,0.4997053537462678,0.0,0.0,0.3333333333333333,1.05,False,SAFETY,False,-1
4,12,0.12,0.3103526677747821,1.4891387625609953,0.4997053537462678,0.0,0.0,0.3333333333333333,1.05,False,SAFETY,False,-1
4,13,0.13,4.498431021130546,-3.1045752889507026,0.4997053537462678,0.0,0.0,0.3333333333333333,1.05,False,SAFETY,False,-1
4,14,0.14,-5.0261516664826615,1.3789111282305573,0.4997053537462678,0.0,0.0,0.3333333333333333,1.05,False,SAFETY,False,-1
4,15,0.15,1.9662929195388898,-0.06674915179469076,0.49147933263950827,0.0,0.0,0.3333333333333333,1.05,False,SAFETY,False,-1
4,16,0.16,-3.438757410059999,1.2257736601672713,0.4997053537462678,0.0,0.0,0.3333333333333333,1.05,False,SAFETY,False,-1
4,17,0.17,9.012046356131004,-1.840462804149216,0.4889966201757904,0.0,0.0,0.3333333333333333,1.05,False,SAFETY,False,-1
4,18,0.18,4.372429972089823,5.119249068331682,0.4997053537462678,0.0,0.0,0.3333333333333333,1.05,False,SAFETY,False,-1
4,19,0.19,-0.8264663857613774,0.6325587896727214,0.48704394123241634,0.0,0.0,0.3333333333333333,1.05,False,SAFETY,False,-1
4,20,0.2,83.42720504344435,-1.858959596518433,0.29972177416743584,0.0,0.0,0.3333333333333333,1.05,False,SAFETY,False,-1
4,21,0.21,6.809774518228064,-0.21390697858815533,0.4945580575309361,0.0,0.0,0.3333333333333333,1.05,False,SAFETY,False,-1
4,22,0.22,11.76929284013945,2.4549782724981237,0.49448537209395715,0.0,0.0,0.3333333333333333,1.05,False,SAFETY,False,-1
4,23,0.23,6.927785543629109,-0.9758435636420999,0.4997217741674359,0.0,0.0,0.3333333333333333,1.05,False,SAFETY,False,-1
4,24,0.24,4.936716492895975,-0.022379957776069607,0.4997217741674359,0.0,0.0,0.3333333333333333,1.05,False,SAFETY,False,-1
4,25,0.25,25.0,25.0,0.5,0.0,0.0,0.3333333333333333,1.05,False,SAFETY,True,-1
4,26,0.26,25.0,25.0,0.5,0.0,0.0,0.3333333333333333,1.05,False,SAFETY,False,-1
4,27,0.27,25.0,25.0,0.5,0.0,0.0,0.3333333333333333,1.05,False,SAFETY,False,-1
4,28,0.28,25.0,25.0,0.5,0.0,0.0,0.3333333333333333,1.05,False,SAFETY,False,-1
4,29,0.29,25.0,25.0,0.5,0.0,0.0,0.3333333333333333,1.05,False,SAFETY,False,-1
4,30,0.3,25.0,25.0,0.5,0.0,0.0,0.3333333333333333,1.05,False,SAFETY,False,-1
4,31,0.31,25.0,25.0,0.5,0.0,0.0,0.3333333333333333,1.05,False,SAFETY,False,-1
4,32,0.32,25.0,25.0,0.5,0.0,0.0,0.3333333333333333,1.05,False,SAFETY,False,-1
4,33,0.33,25.0,25.0,0.5,0.0,0.0,0.3333333333333333,1.05,False,SAFETY,False,-1
4,34,0.34,25.0,25.0,0.5,0.0,0.0,0.3333333333333333,1.05,False,SAFETY,False,-1
4,35,0.35000000000000003,25.0,25.0,0.5,0.0,0.0,0.3333333333333333,1.05,False,SAFETY,False,-1
4,36,0.36,25.0,25.0,0.5,0.0,0.0,0.3333333333333333,1.05,False,SAFETY,False,-1
4,37,0.37,25.0,25.0,0.5,0.0,0.0,0.3333333333333333,1.05,False,SAFETY,False,-1
